{
"type": "FeatureCollection",
"name": "NPDES_Permits",
"crs": { "type": "name", "properties": { "name": "urn:ogc:def:crs:OGC:1.3:CRS84" } },
"features": [
{ "type": "Feature", "properties": { "FEATURE": "ENDPIPE", "NPDES": "SC0039918", "PIPE_": "001", "NAME": "ALLENDALE WWTF", "ACTIVITY": "Active", "FAC_TYPE": "Municipal", "HUC_12": "030601060905", "BASIN": "Savannah", "CNTY_NAME": "Allendale", "SIC": "4952", "SIC_DESC": "Sewerage Systems", "OBJECTID": 161 }, "geometry": { "type": "Point", "coordinates": [ -81.502779309203561, 32.93805794352317 ] } },
{ "type": "Feature", "properties": { "FEATURE": "ENDPIPE", "NPDES": "SC0042803", "PIPE_": "01A", "NAME": "CLARIANT CORP/MARTIN PLANT", "ACTIVITY": "Active", "FAC_TYPE": "Industrial", "HUC_12": "030601060905", "BASIN": "Savannah", "CNTY_NAME": "Allendale", "SIC": "2865", "SIC_DESC": "Cyclic Organic Crudes and Intermediates, and Organic Dyes and Pigments", "OBJECTID": 174 }, "geometry": { "type": "Point", "coordinates": [ -81.482800543007258, 33.006084325272489 ] } },
{ "type": "Feature", "properties": { "FEATURE": "ENDPIPE", "NPDES": "SC0042803", "PIPE_": "001", "NAME": "CLARIANT CORP/MARTIN PLANT", "ACTIVITY": "Active", "FAC_TYPE": "Industrial", "HUC_12": "030601060905", "BASIN": "Savannah", "CNTY_NAME": "Allendale", "SIC": "2865", "SIC_DESC": "Cyclic Organic Crudes and Intermediates, and Organic Dyes and Pigments", "OBJECTID": 175 }, "geometry": { "type": "Point", "coordinates": [ -81.489400095004584, 33.0069335887313 ] } },
{ "type": "Feature", "properties": { "FEATURE": "ENDPIPE", "NPDES": "SC0042803", "PIPE_": "01B", "NAME": "CLARIANT CORP/MARTIN PLANT", "ACTIVITY": "Active", "FAC_TYPE": "Industrial", "HUC_12": "030601060905", "BASIN": "Savannah", "CNTY_NAME": "Allendale", "SIC": "2865", "SIC_DESC": "Cyclic Organic Crudes and Intermediates, and Organic Dyes and Pigments", "OBJECTID": 187 }, "geometry": { "type": "Point", "coordinates": [ -81.481922654723277, 33.034733681754169 ] } },
{ "type": "Feature", "properties": { "FEATURE": "ENDPIPE", "NPDES": "SC0002020", "PIPE_": "006", "NAME": "SCE&G/CANADYS STATION", "ACTIVITY": "Active", "FAC_TYPE": "Industrial", "HUC_12": "030502060108", "BASIN": "Edisto", "CNTY_NAME": "Dorchester", "SIC": "4911", "SIC_DESC": "Electric Services", "OBJECTID": 201 }, "geometry": { "type": "Point", "coordinates": [ -80.617970182273012, 33.075138313515794 ] } },
{ "type": "Feature", "properties": { "FEATURE": "ENDPIPE", "NPDES": "SC0002020", "PIPE_": "004", "NAME": "SCE&G/CANADYS STATION", "ACTIVITY": "Active", "FAC_TYPE": "Industrial", "HUC_12": "030502060108", "BASIN": "Edisto", "CNTY_NAME": "Dorchester", "SIC": "4911", "SIC_DESC": "Electric Services", "OBJECTID": 203 }, "geometry": { "type": "Point", "coordinates": [ -80.623925342327553, 33.076802600577089 ] } },
{ "type": "Feature", "properties": { "FEATURE": "ENDPIPE", "NPDES": "SC0038555", "PIPE_": "01A", "NAME": "SHOWA DENKO CARBON", "ACTIVITY": "Active", "FAC_TYPE": "Industrial", "HUC_12": "030502050311", "BASIN": "Edisto", "CNTY_NAME": "Dorchester", "SIC": "3624", "SIC_DESC": "Carbon and Graphite Products", "OBJECTID": 207 }, "geometry": { "type": "Point", "coordinates": [ -80.340788653698539, 33.092086493016552 ] } },
{ "type": "Feature", "properties": { "FEATURE": "ENDPIPE", "NPDES": "SC0038555", "PIPE_": "001", "NAME": "SHOWA DENKO CARBON", "ACTIVITY": "Active", "FAC_TYPE": "Industrial", "HUC_12": "030502050310", "BASIN": "Edisto", "CNTY_NAME": "Dorchester", "SIC": "3624", "SIC_DESC": "Carbon and Graphite Products", "OBJECTID": 211 }, "geometry": { "type": "Point", "coordinates": [ -80.34853319067814, 33.113087417723122 ] } },
{ "type": "Feature", "properties": { "FEATURE": "ENDPIPE", "NPDES": "SC0026867", "PIPE_": "001", "NAME": "OAKLEY MAINTENANCE FACILITY", "ACTIVITY": "Active", "FAC_TYPE": "Domestic", "HUC_12": "030502010702", "BASIN": "Santee", "CNTY_NAME": "Berkeley", "SIC": "8249", "SIC_DESC": "Vocational Schools, NEC", "OBJECTID": 212 }, "geometry": { "type": "Point", "coordinates": [ -80.017740370640553, 33.114980255376011 ] } },
{ "type": "Feature", "properties": { "FEATURE": "ENDPIPE", "NPDES": "SC0046175", "PIPE_": "001", "NAME": "SCGENCO/WILLIAMS ASH DISP HW52", "ACTIVITY": "Active", "FAC_TYPE": "Industrial", "HUC_12": "030502010702", "BASIN": "Santee", "CNTY_NAME": "Berkeley", "SIC": "4953", "SIC_DESC": "Refuse Systems", "OBJECTID": 213 }, "geometry": { "type": "Point", "coordinates": [ -80.038878552471431, 33.115284890411225 ] } },
{ "type": "Feature", "properties": { "FEATURE": "ENDPIPE", "NPDES": "SC0039764", "PIPE_": "001", "NAME": "BCW&SA/CENTRAL BERKELEY WWTP", "ACTIVITY": "Active", "FAC_TYPE": "Municipal", "HUC_12": "030502010701", "BASIN": "Santee", "CNTY_NAME": "Berkeley", "SIC": "4952", "SIC_DESC": "Sewerage Systems", "OBJECTID": 217 }, "geometry": { "type": "Point", "coordinates": [ -79.997134651571557, 33.150288066734909 ] } },
{ "type": "Feature", "properties": { "FEATURE": "ENDPIPE", "NPDES": "SC0025844", "PIPE_": "001", "NAME": "ST. GEORGE, TOWN OF", "ACTIVITY": "Active", "FAC_TYPE": "Municipal", "HUC_12": "030502060203", "BASIN": "Edisto", "CNTY_NAME": "Dorchester", "SIC": "4952", "SIC_DESC": "Sewerage Systems", "OBJECTID": 222 }, "geometry": { "type": "Point", "coordinates": [ -80.602479965395943, 33.180117770177581 ] } },
{ "type": "Feature", "properties": { "FEATURE": "ENDPIPE", "NPDES": "SC0021598", "PIPE_": "001", "NAME": "MONCKS CORNER WWTF", "ACTIVITY": "Active", "FAC_TYPE": "Municipal", "HUC_12": "030502010701", "BASIN": "Santee", "CNTY_NAME": "Berkeley", "SIC": "4952", "SIC_DESC": "Sewerage Systems", "OBJECTID": 224 }, "geometry": { "type": "Point", "coordinates": [ -79.975590057230306, 33.179507459803766 ] } },
{ "type": "Feature", "properties": { "FEATURE": "ENDPIPE", "NPDES": "SC0000175", "PIPE_": "D-02", "NAME": "US DOE/SRS/D-AREA POWERHOUSE", "ACTIVITY": "Active", "FAC_TYPE": "Industrial", "HUC_12": "030601060805", "BASIN": "Savannah", "CNTY_NAME": "Barnwell", "SIC": "4911", "SIC_DESC": "Electric Services", "OBJECTID": 227 }, "geometry": { "type": "Point", "coordinates": [ -81.744796088094148, 33.196413081807215 ] } },
{ "type": "Feature", "properties": { "FEATURE": "ENDPIPE", "NPDES": "SC0000175", "PIPE_": "L07", "NAME": "US DOE/SAVANNAH RIVER SITE", "ACTIVITY": "Active", "FAC_TYPE": "Industrial", "HUC_12": "030601060804", "BASIN": "Savannah", "CNTY_NAME": "Barnwell", "SIC": "2819", "SIC_DESC": "Industrial Inorganic Chemicals, NEC", "OBJECTID": 233 }, "geometry": { "type": "Point", "coordinates": [ -81.622741408908979, 33.203435866317271 ] } },
{ "type": "Feature", "properties": { "FEATURE": "ENDPIPE", "NPDES": "SC0000175", "PIPE_": "K06", "NAME": "US DOE/SAVANNAH RIVER SITE", "ACTIVITY": "Active", "FAC_TYPE": "Industrial", "HUC_12": "030601060803", "BASIN": "Savannah", "CNTY_NAME": "Barnwell", "SIC": "2819", "SIC_DESC": "Industrial Inorganic Chemicals, NEC", "OBJECTID": 234 }, "geometry": { "type": "Point", "coordinates": [ -81.663469355687582, 33.203534333335554 ] } },
{ "type": "Feature", "properties": { "FEATURE": "ENDPIPE", "NPDES": "SC0000175", "PIPE_": "L7A", "NAME": "US DOE/SAVANNAH RIVER SITE", "ACTIVITY": "Active", "FAC_TYPE": "Industrial", "HUC_12": "030601060804", "BASIN": "Savannah", "CNTY_NAME": "Barnwell", "SIC": "2819", "SIC_DESC": "Industrial Inorganic Chemicals, NEC", "OBJECTID": 238 }, "geometry": { "type": "Point", "coordinates": [ -81.623753675739692, 33.207552876076377 ] } },
{ "type": "Feature", "properties": { "FEATURE": "ENDPIPE", "NPDES": "SC0000175", "PIPE_": "K18", "NAME": "US DOE/SAVANNAH RIVER SITE", "ACTIVITY": "Active", "FAC_TYPE": "Industrial", "HUC_12": "030601060803", "BASIN": "Savannah", "CNTY_NAME": "Barnwell", "SIC": "2819", "SIC_DESC": "Industrial Inorganic Chemicals, NEC", "OBJECTID": 240 }, "geometry": { "type": "Point", "coordinates": [ -81.669352682535646, 33.208382559106823 ] } },
{ "type": "Feature", "properties": { "FEATURE": "ENDPIPE", "NPDES": "SC0038504", "PIPE_": "001", "NAME": "HARLEYVILLE, TOWN OF", "ACTIVITY": "Active", "FAC_TYPE": "Municipal", "HUC_12": "030502060204", "BASIN": "Edisto", "CNTY_NAME": "Dorchester", "SIC": "4952", "SIC_DESC": "Sewerage Systems", "OBJECTID": 243 }, "geometry": { "type": "Point", "coordinates": [ -80.459563387753818, 33.209866102830183 ] } },
{ "type": "Feature", "properties": { "FEATURE": "ENDPIPE", "NPDES": "SC0000175", "PIPE_": "K12", "NAME": "US DOE/SAVANNAH RIVER SITE", "ACTIVITY": "Active", "FAC_TYPE": "Industrial", "HUC_12": "030601060803", "BASIN": "Savannah", "CNTY_NAME": "Barnwell", "SIC": "2819", "SIC_DESC": "Industrial Inorganic Chemicals, NEC", "OBJECTID": 245 }, "geometry": { "type": "Point", "coordinates": [ -81.666345895702847, 33.209742650709359 ] } },
{ "type": "Feature", "properties": { "FEATURE": "ENDPIPE", "NPDES": "SC0022586", "PIPE_": "002", "NAME": "ARGOS CEMENT LLC", "ACTIVITY": "Active", "FAC_TYPE": "Industrial", "HUC_12": "030502060204", "BASIN": "Edisto", "CNTY_NAME": "Dorchester", "SIC": "3241", "SIC_DESC": "Cement, Hydraulic", "OBJECTID": 249 }, "geometry": { "type": "Point", "coordinates": [ -80.452467371848286, 33.223552096385532 ] } },
{ "type": "Feature", "properties": { "FEATURE": "ENDPIPE", "NPDES": "SC0001091", "PIPE_": "003", "NAME": "SCPSA/JEFFERIES GEN STATION", "ACTIVITY": "Active", "FAC_TYPE": "Industrial", "HUC_12": "030502010701", "BASIN": "Santee", "CNTY_NAME": "Berkeley", "SIC": "4911", "SIC_DESC": "Electric Services", "OBJECTID": 252 }, "geometry": { "type": "Point", "coordinates": [ -79.977094419869118, 33.226376164565032 ] } },
{ "type": "Feature", "properties": { "FEATURE": "ENDPIPE", "NPDES": "SC0001091", "PIPE_": "004", "NAME": "SCPSA/JEFFERIES GEN STATION", "ACTIVITY": "Active", "FAC_TYPE": "Industrial", "HUC_12": "030502010701", "BASIN": "Santee", "CNTY_NAME": "Berkeley", "SIC": "4911", "SIC_DESC": "Electric Services", "OBJECTID": 253 }, "geometry": { "type": "Point", "coordinates": [ -79.977094419869118, 33.226376164565032 ] } },
{ "type": "Feature", "properties": { "FEATURE": "ENDPIPE", "NPDES": "SC0047333", "PIPE_": "001", "NAME": "BRANCHVILLE, TOWN OF", "ACTIVITY": "Active", "FAC_TYPE": "Municipal", "HUC_12": "030502060103", "BASIN": "Edisto", "CNTY_NAME": "Orangeburg", "SIC": "4952", "SIC_DESC": "Sewerage Systems", "OBJECTID": 255 }, "geometry": { "type": "Point", "coordinates": [ -80.843974858381245, 33.231460167339456 ] } },
{ "type": "Feature", "properties": { "FEATURE": "ENDPIPE", "NPDES": "SC0001091", "PIPE_": "007", "NAME": "SCPSA/JEFFERIES GEN STATION", "ACTIVITY": "Active", "FAC_TYPE": "Industrial", "HUC_12": "030502010701", "BASIN": "Santee", "CNTY_NAME": "Berkeley", "SIC": "4911", "SIC_DESC": "Electric Services", "OBJECTID": 259 }, "geometry": { "type": "Point", "coordinates": [ -79.977709405654437, 33.233563390480981 ] } },
{ "type": "Feature", "properties": { "FEATURE": "ENDPIPE", "NPDES": "SC0035190", "PIPE_": "001", "NAME": "C R BARD INC", "ACTIVITY": "Active", "FAC_TYPE": "Industrial", "HUC_12": "030502010701", "BASIN": "Santee", "CNTY_NAME": "Berkeley", "SIC": "3069", "SIC_DESC": "Fabricated Rubber Products, NEC", "OBJECTID": 260 }, "geometry": { "type": "Point", "coordinates": [ -79.985004525526804, 33.237229718888173 ] } },
{ "type": "Feature", "properties": { "FEATURE": "ENDPIPE", "NPDES": "SC0001091", "PIPE_": "006", "NAME": "SCPSA/JEFFERIES GEN STATION", "ACTIVITY": "Active", "FAC_TYPE": "Industrial", "HUC_12": "030502010701", "BASIN": "Santee", "CNTY_NAME": "Berkeley", "SIC": "4911", "SIC_DESC": "Electric Services", "OBJECTID": 261 }, "geometry": { "type": "Point", "coordinates": [ -79.977709405654437, 33.233563390480981 ] } },
{ "type": "Feature", "properties": { "FEATURE": "ENDPIPE", "NPDES": "SC0001091", "PIPE_": "002", "NAME": "SCPSA/JEFFERIES GEN STATION", "ACTIVITY": "Active", "FAC_TYPE": "Industrial", "HUC_12": "030502010701", "BASIN": "Santee", "CNTY_NAME": "Berkeley", "SIC": "4911", "SIC_DESC": "Electric Services", "OBJECTID": 262 }, "geometry": { "type": "Point", "coordinates": [ -79.980455117706143, 33.23672469990818 ] } },
{ "type": "Feature", "properties": { "FEATURE": "ENDPIPE", "NPDES": "SC0001091", "PIPE_": "001", "NAME": "SCPSA/JEFFERIES GEN STATION", "ACTIVITY": "Active", "FAC_TYPE": "Industrial", "HUC_12": "030502010701", "BASIN": "Santee", "CNTY_NAME": "Berkeley", "SIC": "4911", "SIC_DESC": "Electric Services", "OBJECTID": 263 }, "geometry": { "type": "Point", "coordinates": [ -79.98081032407076, 33.237388286632815 ] } },
{ "type": "Feature", "properties": { "FEATURE": "ENDPIPE", "NPDES": "SC0022667", "PIPE_": "004", "NAME": "GIANT CEMENT COMPANY INC", "ACTIVITY": "Active", "FAC_TYPE": "Industrial", "HUC_12": "030502050305", "BASIN": "Edisto", "CNTY_NAME": "Dorchester", "SIC": "3241", "SIC_DESC": "Cement, Hydraulic", "OBJECTID": 264 }, "geometry": { "type": "Point", "coordinates": [ -80.445279491234402, 33.24250708726484 ] } },
{ "type": "Feature", "properties": { "FEATURE": "ENDPIPE", "NPDES": "SC0000175", "PIPE_": "G10", "NAME": "US DOE/SAVANNAH RIVER SITE", "ACTIVITY": "Active", "FAC_TYPE": "Industrial", "HUC_12": "030601060801", "BASIN": "Savannah", "CNTY_NAME": "Aiken", "SIC": "2819", "SIC_DESC": "Industrial Inorganic Chemicals, NEC", "OBJECTID": 269 }, "geometry": { "type": "Point", "coordinates": [ -81.693140964652201, 33.257137269457495 ] } },
{ "type": "Feature", "properties": { "FEATURE": "ENDPIPE", "NPDES": "SC0002992", "PIPE_": "002", "NAME": "HOLCIM (US) INC/HOLLY HILL PLT", "ACTIVITY": "Active", "FAC_TYPE": "Industrial", "HUC_12": "030502050306", "BASIN": "Edisto", "CNTY_NAME": "Orangeburg", "SIC": "3241", "SIC_DESC": "Cement, Hydraulic", "OBJECTID": 271 }, "geometry": { "type": "Point", "coordinates": [ -80.426111266374434, 33.27974763492864 ] } },
{ "type": "Feature", "properties": { "FEATURE": "ENDPIPE", "NPDES": "SC0000175", "PIPE_": "F08", "NAME": "US DOE/SAVANNAH RIVER SITE", "ACTIVITY": "Active", "FAC_TYPE": "Industrial", "HUC_12": "030601060801", "BASIN": "Savannah", "CNTY_NAME": "Aiken", "SIC": "2819", "SIC_DESC": "Industrial Inorganic Chemicals, NEC", "OBJECTID": 272 }, "geometry": { "type": "Point", "coordinates": [ -81.670639683386497, 33.278851669926418 ] } },
{ "type": "Feature", "properties": { "FEATURE": "ENDPIPE", "NPDES": "SC0002992", "PIPE_": "001", "NAME": "HOLCIM (US) INC/HOLLY HILL PLT", "ACTIVITY": "Active", "FAC_TYPE": "Industrial", "HUC_12": "030502050306", "BASIN": "Edisto", "CNTY_NAME": "Orangeburg", "SIC": "3241", "SIC_DESC": "Cement, Hydraulic", "OBJECTID": 273 }, "geometry": { "type": "Point", "coordinates": [ -80.425278866242238, 33.278621159623341 ] } },
{ "type": "Feature", "properties": { "FEATURE": "ENDPIPE", "NPDES": "SC0000175", "PIPE_": "H12", "NAME": "US DOE/SAVANNAH RIVER SITE", "ACTIVITY": "Active", "FAC_TYPE": "Industrial", "HUC_12": "030601060801", "BASIN": "Savannah", "CNTY_NAME": "Aiken", "SIC": "2819", "SIC_DESC": "Industrial Inorganic Chemicals, NEC", "OBJECTID": 275 }, "geometry": { "type": "Point", "coordinates": [ -81.650083645174405, 33.280259711475487 ] } },
{ "type": "Feature", "properties": { "FEATURE": "ENDPIPE", "NPDES": "SC0002992", "PIPE_": "02A", "NAME": "HOLCIM (US) INC/HOLLY HILL PLT", "ACTIVITY": "Active", "FAC_TYPE": "Industrial", "HUC_12": "030502050306", "BASIN": "Edisto", "CNTY_NAME": "Orangeburg", "SIC": "3241", "SIC_DESC": "Cement, Hydraulic", "OBJECTID": 276 }, "geometry": { "type": "Point", "coordinates": [ -80.430833778627431, 33.279181837362529 ] } },
{ "type": "Feature", "properties": { "FEATURE": "ENDPIPE", "NPDES": "SC0001147", "PIPE_": "002", "NAME": "ROSEBURG FOREST PRODUCTS S/HOLLY HILL MDF", "ACTIVITY": "Active", "FAC_TYPE": "Industrial", "HUC_12": "030502050305", "BASIN": "Edisto", "CNTY_NAME": "Orangeburg", "SIC": "2493", "SIC_DESC": "Reconstituted Wood Products", "OBJECTID": 277 }, "geometry": { "type": "Point", "coordinates": [ -80.436511897528149, 33.281467145161528 ] } },
{ "type": "Feature", "properties": { "FEATURE": "ENDPIPE", "NPDES": "SC0000175", "PIPE_": "H07", "NAME": "US DOE/SAVANNAH RIVER SITE", "ACTIVITY": "Active", "FAC_TYPE": "Industrial", "HUC_12": "030601060503", "BASIN": "Savannah", "CNTY_NAME": "Barnwell", "SIC": "2819", "SIC_DESC": "Industrial Inorganic Chemicals, NEC", "OBJECTID": 279 }, "geometry": { "type": "Point", "coordinates": [ -81.635520985598333, 33.285298132399774 ] } },
{ "type": "Feature", "properties": { "FEATURE": "ENDPIPE", "NPDES": "SC0000175", "PIPE_": "H02", "NAME": "US DOE/SAVANNAH RIVER SITE", "ACTIVITY": "Active", "FAC_TYPE": "Industrial", "HUC_12": "030601060505", "BASIN": "Savannah", "CNTY_NAME": "Aiken", "SIC": "2819", "SIC_DESC": "Industrial Inorganic Chemicals, NEC", "OBJECTID": 282 }, "geometry": { "type": "Point", "coordinates": [ -81.648851045438448, 33.288830390561806 ] } },
{ "type": "Feature", "properties": { "FEATURE": "ENDPIPE", "NPDES": "SC0034479", "PIPE_": "001", "NAME": "BERKELEY CO. SCHOOLS/CROSS ELE", "ACTIVITY": "Active", "FAC_TYPE": "Domestic", "HUC_12": "030502010101", "BASIN": "Santee", "CNTY_NAME": "Berkeley", "SIC": "8211", "SIC_DESC": "Elementary and Secondary Schools", "OBJECTID": 287 }, "geometry": { "type": "Point", "coordinates": [ -80.161891543550453, 33.296905448289934 ] } },
{ "type": "Feature", "properties": { "FEATURE": "ENDPIPE", "NPDES": "SC0000175", "PIPE_": "A11", "NAME": "US DOE/SAVANNAH RIVER SITE", "ACTIVITY": "Active", "FAC_TYPE": "Industrial", "HUC_12": "030601060504", "BASIN": "Savannah", "CNTY_NAME": "Aiken", "SIC": "2819", "SIC_DESC": "Industrial Inorganic Chemicals, NEC", "OBJECTID": 290 }, "geometry": { "type": "Point", "coordinates": [ -81.721812524204964, 33.329733552346283 ] } },
{ "type": "Feature", "properties": { "FEATURE": "ENDPIPE", "NPDES": "SC0000175", "PIPE_": "M05", "NAME": "US DOE/SAVANNAH RIVER SITE", "ACTIVITY": "Active", "FAC_TYPE": "Industrial", "HUC_12": "030601060504", "BASIN": "Savannah", "CNTY_NAME": "Aiken", "SIC": "2819", "SIC_DESC": "Industrial Inorganic Chemicals, NEC", "OBJECTID": 292 }, "geometry": { "type": "Point", "coordinates": [ -81.73860898357006, 33.334101768118821 ] } },
{ "type": "Feature", "properties": { "FEATURE": "ENDPIPE", "NPDES": "SC0000175", "PIPE_": "A01", "NAME": "US DOE/SAVANNAH RIVER SITE", "ACTIVITY": "Active", "FAC_TYPE": "Industrial", "HUC_12": "030601060504", "BASIN": "Savannah", "CNTY_NAME": "Aiken", "SIC": "2819", "SIC_DESC": "Industrial Inorganic Chemicals, NEC", "OBJECTID": 298 }, "geometry": { "type": "Point", "coordinates": [ -81.731473969188869, 33.344879565023739 ] } },
{ "type": "Feature", "properties": { "FEATURE": "ENDPIPE", "NPDES": "SC0000175", "PIPE_": "A1A", "NAME": "US DOE/SAVANNAH RIVER SITE", "ACTIVITY": "Active", "FAC_TYPE": "Industrial", "HUC_12": "030601060504", "BASIN": "Savannah", "CNTY_NAME": "Aiken", "SIC": "2819", "SIC_DESC": "Industrial Inorganic Chemicals, NEC", "OBJECTID": 299 }, "geometry": { "type": "Point", "coordinates": [ -81.734955747888634, 33.344989791869757 ] } },
{ "type": "Feature", "properties": { "FEATURE": "ENDPIPE", "NPDES": "SC0045772", "PIPE_": "001", "NAME": "SCE&G/COPE POWER PLANT", "ACTIVITY": "Active", "FAC_TYPE": "Industrial", "HUC_12": "030502040311", "BASIN": "Edisto", "CNTY_NAME": "Orangeburg", "SIC": "4911", "SIC_DESC": "Electric Services", "OBJECTID": 304 }, "geometry": { "type": "Point", "coordinates": [ -81.059355306882836, 33.358819855962622 ] } },
{ "type": "Feature", "properties": { "FEATURE": "ENDPIPE", "NPDES": "SC0037401", "PIPE_": "001", "NAME": "SCPSA/CROSS GENERATING STATION", "ACTIVITY": "Active", "FAC_TYPE": "Industrial", "HUC_12": "030502010101", "BASIN": "Santee", "CNTY_NAME": "Berkeley", "SIC": "4911", "SIC_DESC": "Electric Services", "OBJECTID": 305 }, "geometry": { "type": "Point", "coordinates": [ -80.109046152499772, 33.356648079981376 ] } },
{ "type": "Feature", "properties": { "FEATURE": "ENDPIPE", "NPDES": "SC0040037", "PIPE_": "001", "NAME": "BOWMAN TOWN OF", "ACTIVITY": "Active", "FAC_TYPE": "Municipal", "HUC_12": "030502050107", "BASIN": "Edisto", "CNTY_NAME": "Orangeburg", "SIC": "4952", "SIC_DESC": "Sewerage Systems", "OBJECTID": 306 }, "geometry": { "type": "Point", "coordinates": [ -80.676798489014814, 33.359915200028759 ] } },
{ "type": "Feature", "properties": { "FEATURE": "ENDPIPE", "NPDES": "SC0037401", "PIPE_": "005", "NAME": "SCPSA/CROSS GENERATING STATION", "ACTIVITY": "Active", "FAC_TYPE": "Industrial", "HUC_12": "030502010101", "BASIN": "Santee", "CNTY_NAME": "Berkeley", "SIC": "4911", "SIC_DESC": "Electric Services", "OBJECTID": 309 }, "geometry": { "type": "Point", "coordinates": [ -80.109074729393186, 33.361757674512759 ] } },
{ "type": "Feature", "properties": { "FEATURE": "ENDPIPE", "NPDES": "SC0045772", "PIPE_": "005", "NAME": "SCE&G/COPE POWER PLANT", "ACTIVITY": "Active", "FAC_TYPE": "Industrial", "HUC_12": "030502040309", "BASIN": "Edisto", "CNTY_NAME": "Orangeburg", "SIC": "4911", "SIC_DESC": "Electric Services", "OBJECTID": 310 }, "geometry": { "type": "Point", "coordinates": [ -81.032686498943093, 33.366023074094628 ] } },
{ "type": "Feature", "properties": { "FEATURE": "ENDPIPE", "NPDES": "SC0045772", "PIPE_": "003", "NAME": "SCE&G/COPE POWER PLANT", "ACTIVITY": "Active", "FAC_TYPE": "Industrial", "HUC_12": "030502040309", "BASIN": "Edisto", "CNTY_NAME": "Orangeburg", "SIC": "4911", "SIC_DESC": "Electric Services", "OBJECTID": 312 }, "geometry": { "type": "Point", "coordinates": [ -81.032686498943093, 33.366023074094628 ] } },
{ "type": "Feature", "properties": { "FEATURE": "ENDPIPE", "NPDES": "SC0045772", "PIPE_": "006", "NAME": "SCE&G/COPE POWER PLANT", "ACTIVITY": "Active", "FAC_TYPE": "Industrial", "HUC_12": "030502040309", "BASIN": "Edisto", "CNTY_NAME": "Orangeburg", "SIC": "4911", "SIC_DESC": "Electric Services", "OBJECTID": 313 }, "geometry": { "type": "Point", "coordinates": [ -81.032686498943093, 33.366023074094628 ] } },
{ "type": "Feature", "properties": { "FEATURE": "ENDPIPE", "NPDES": "SC0026417", "PIPE_": "001", "NAME": "BLACKVILLE WWTF", "ACTIVITY": "Active", "FAC_TYPE": "Municipal", "HUC_12": "030502040305", "BASIN": "Edisto", "CNTY_NAME": "Barnwell", "SIC": "4952", "SIC_DESC": "Sewerage Systems", "OBJECTID": 314 }, "geometry": { "type": "Point", "coordinates": [ -81.276714670795698, 33.365730275873368 ] } },
{ "type": "Feature", "properties": { "FEATURE": "ENDPIPE", "NPDES": "SC0037401", "PIPE_": "002", "NAME": "SCPSA/CROSS GENERATING STATION", "ACTIVITY": "Active", "FAC_TYPE": "Industrial", "HUC_12": "030502010101", "BASIN": "Santee", "CNTY_NAME": "Berkeley", "SIC": "4911", "SIC_DESC": "Electric Services", "OBJECTID": 315 }, "geometry": { "type": "Point", "coordinates": [ -80.105527680561408, 33.363272349622022 ] } },
{ "type": "Feature", "properties": { "FEATURE": "ENDPIPE", "NPDES": "SC0045772", "PIPE_": "002", "NAME": "SCE&G/COPE POWER PLANT", "ACTIVITY": "Active", "FAC_TYPE": "Industrial", "HUC_12": "030502040311", "BASIN": "Edisto", "CNTY_NAME": "Orangeburg", "SIC": "4911", "SIC_DESC": "Electric Services", "OBJECTID": 317 }, "geometry": { "type": "Point", "coordinates": [ -81.030034002915727, 33.366785921285022 ] } },
{ "type": "Feature", "properties": { "FEATURE": "ENDPIPE", "NPDES": "SC0037401", "PIPE_": "003", "NAME": "SCPSA/CROSS GENERATING STATION", "ACTIVITY": "Active", "FAC_TYPE": "Industrial", "HUC_12": "030502010101", "BASIN": "Santee", "CNTY_NAME": "Berkeley", "SIC": "4911", "SIC_DESC": "Electric Services", "OBJECTID": 321 }, "geometry": { "type": "Point", "coordinates": [ -80.109299743842186, 33.36737622939895 ] } },
{ "type": "Feature", "properties": { "FEATURE": "ENDPIPE", "NPDES": "SC0037401", "PIPE_": "004", "NAME": "SCPSA/CROSS GENERATING STATION", "ACTIVITY": "Active", "FAC_TYPE": "Industrial", "HUC_12": "030502010101", "BASIN": "Santee", "CNTY_NAME": "Berkeley", "SIC": "4911", "SIC_DESC": "Electric Services", "OBJECTID": 323 }, "geometry": { "type": "Point", "coordinates": [ -80.107276337524922, 33.368072271349199 ] } },
{ "type": "Feature", "properties": { "FEATURE": "ENDPIPE", "NPDES": "SC0047023", "PIPE_": "003", "NAME": "ORANGEBURG NTL FISH HATCHERY", "ACTIVITY": "Active", "FAC_TYPE": "Industrial", "HUC_12": "030502030308", "BASIN": "Edisto", "CNTY_NAME": "Orangeburg", "SIC": " ", "SIC_DESC": " ", "OBJECTID": 338 }, "geometry": { "type": "Point", "coordinates": [ -80.878799834016533, 33.407342092958288 ] } },
{ "type": "Feature", "properties": { "FEATURE": "ENDPIPE", "NPDES": "SC0024481", "PIPE_": "001", "NAME": "ORANGEBURG WWTF", "ACTIVITY": "Active", "FAC_TYPE": "Municipal", "HUC_12": "030502030308", "BASIN": "Edisto", "CNTY_NAME": "Orangeburg", "SIC": "4952", "SIC_DESC": "Sewerage Systems", "OBJECTID": 345 }, "geometry": { "type": "Point", "coordinates": [ -80.860126676326203, 33.436465283155208 ] } },
{ "type": "Feature", "properties": { "FEATURE": "ENDPIPE", "NPDES": "SC0000574", "PIPE_": "003", "NAME": "SCE&G/URQUHART STEAM STATION", "ACTIVITY": "Active", "FAC_TYPE": "Industrial", "HUC_12": "030601060607", "BASIN": "Savannah", "CNTY_NAME": "Aiken", "SIC": "4911", "SIC_DESC": "Electric Services", "OBJECTID": 346 }, "geometry": { "type": "Point", "coordinates": [ -81.9114028616589, 33.433905568839712 ] } },
{ "type": "Feature", "properties": { "FEATURE": "ENDPIPE", "NPDES": "SC0000574", "PIPE_": "001", "NAME": "SCE&G/URQUHART STEAM STATION", "ACTIVITY": "Active", "FAC_TYPE": "Industrial", "HUC_12": "030601060607", "BASIN": "Savannah", "CNTY_NAME": "Aiken", "SIC": "4911", "SIC_DESC": "Electric Services", "OBJECTID": 347 }, "geometry": { "type": "Point", "coordinates": [ -81.912135430900022, 33.434265464569911 ] } },
{ "type": "Feature", "properties": { "FEATURE": "ENDPIPE", "NPDES": "SC0000574", "PIPE_": "002", "NAME": "SCE&G/URQUHART STEAM STATION", "ACTIVITY": "Active", "FAC_TYPE": "Industrial", "HUC_12": "030601060607", "BASIN": "Savannah", "CNTY_NAME": "Aiken", "SIC": "4911", "SIC_DESC": "Electric Services", "OBJECTID": 348 }, "geometry": { "type": "Point", "coordinates": [ -81.913665944396087, 33.434549580207232 ] } },
{ "type": "Feature", "properties": { "FEATURE": "ENDPIPE", "NPDES": "SC0045993", "PIPE_": "001", "NAME": "NORWAY, TOWN OF", "ACTIVITY": "Active", "FAC_TYPE": "Municipal", "HUC_12": "030502040306", "BASIN": "Edisto", "CNTY_NAME": "Orangeburg", "SIC": "4952", "SIC_DESC": "Sewerage Systems", "OBJECTID": 349 }, "geometry": { "type": "Point", "coordinates": [ -81.129919820018159, 33.439001633074803 ] } },
{ "type": "Feature", "properties": { "FEATURE": "ENDPIPE", "NPDES": "SC0040185", "PIPE_": "001", "NAME": "EDISTO HIGH SCHOOL", "ACTIVITY": "Active", "FAC_TYPE": "Domestic", "HUC_12": "030502030308", "BASIN": "Edisto", "CNTY_NAME": "Orangeburg", "SIC": "8211", "SIC_DESC": "Elementary and Secondary Schools", "OBJECTID": 355 }, "geometry": { "type": "Point", "coordinates": [ -80.933874725963548, 33.445866467199828 ] } },
{ "type": "Feature", "properties": { "FEATURE": "ENDPIPE", "NPDES": "SC0024457", "PIPE_": "001", "NAME": "AIKEN PSA/HORSE CREEK WWTF", "ACTIVITY": "Active", "FAC_TYPE": "Municipal", "HUC_12": "030601060607", "BASIN": "Savannah", "CNTY_NAME": "Aiken", "SIC": "4952", "SIC_DESC": "Sewerage Systems", "OBJECTID": 357 }, "geometry": { "type": "Point", "coordinates": [ -81.922687681355271, 33.457759510860413 ] } },
{ "type": "Feature", "properties": { "FEATURE": "ENDPIPE", "NPDES": "SC0047023", "PIPE_": "001", "NAME": "ORANGEBURG NTL FISH HATCHERY", "ACTIVITY": "Active", "FAC_TYPE": "Industrial", "HUC_12": "030502030308", "BASIN": "Edisto", "CNTY_NAME": "Orangeburg", "SIC": " ", "SIC_DESC": " ", "OBJECTID": 361 }, "geometry": { "type": "Point", "coordinates": [ -80.860168143097866, 33.468029815514626 ] } },
{ "type": "Feature", "properties": { "FEATURE": "ENDPIPE", "NPDES": "SC0001180", "PIPE_": "001", "NAME": "SI GROUP", "ACTIVITY": "Active", "FAC_TYPE": "Industrial", "HUC_12": "030502030308", "BASIN": "Edisto", "CNTY_NAME": "Orangeburg", "SIC": "2869", "SIC_DESC": "Industrial Organic Chemicals, NEC", "OBJECTID": 362 }, "geometry": { "type": "Point", "coordinates": [ -80.873980185522555, 33.469634346329457 ] } },
{ "type": "Feature", "properties": { "FEATURE": "ENDPIPE", "NPDES": "ND0067610", "PIPE_": "001", "NAME": "LAKE MARION RESORT & MARINA", "ACTIVITY": "Active", "FAC_TYPE": "Domestic", "HUC_12": "030501110109", "BASIN": "Santee", "CNTY_NAME": "Orangeburg", "SIC": "4469", "SIC_DESC": " ", "OBJECTID": 365 }, "geometry": { "type": "Point", "coordinates": [ -80.435452561703855, 33.471393823837197 ] } },
{ "type": "Feature", "properties": { "FEATURE": "ENDPIPE", "NPDES": "SC0039951", "PIPE_": "001", "NAME": "GCW&SD/PAWLEYS AREA WWTP", "ACTIVITY": "Active", "FAC_TYPE": "Municipal", "HUC_12": "030402061003", "BASIN": "PeeDee", "CNTY_NAME": "Georgetown", "SIC": "4952", "SIC_DESC": "Sewerage Systems", "OBJECTID": 367 }, "geometry": { "type": "Point", "coordinates": [ -79.153285574307105, 33.464750005296679 ] } },
{ "type": "Feature", "properties": { "FEATURE": "ENDPIPE", "NPDES": "SC0027529", "PIPE_": "001", "NAME": "SC MINERALS INC/N AUGUSTA MINE", "ACTIVITY": "Active", "FAC_TYPE": "Industrial", "HUC_12": "030601060205", "BASIN": "Savannah", "CNTY_NAME": "Aiken", "SIC": "1442", "SIC_DESC": "Construction Sand and Gravel", "OBJECTID": 373 }, "geometry": { "type": "Point", "coordinates": [ -81.899524762389603, 33.483129302372497 ] } },
{ "type": "Feature", "properties": { "FEATURE": "ENDPIPE", "NPDES": "SC0029645", "PIPE_": "001", "NAME": "CWS/ROOSEVELT GARDEN APTS", "ACTIVITY": "Active", "FAC_TYPE": "Domestic", "HUC_12": "030502050101", "BASIN": "Edisto", "CNTY_NAME": "Orangeburg", "SIC": "6513", "SIC_DESC": "Operators of Apartment Buildings", "OBJECTID": 386 }, "geometry": { "type": "Point", "coordinates": [ -80.832566595926011, 33.523644562832189 ] } },
{ "type": "Feature", "properties": { "FEATURE": "ENDPIPE", "NPDES": "SC0040096", "PIPE_": "001", "NAME": "KENTUCKY-TENN CLAY/CONGER PLT", "ACTIVITY": "Active", "FAC_TYPE": "Industrial", "HUC_12": "030601060203", "BASIN": "Savannah", "CNTY_NAME": "Aiken", "SIC": "1455", "SIC_DESC": "Kaolin and Ball Clay", "OBJECTID": 388 }, "geometry": { "type": "Point", "coordinates": [ -81.779675331892861, 33.537509205526185 ] } },
{ "type": "Feature", "properties": { "FEATURE": "ENDPIPE", "NPDES": "SC0040959", "PIPE_": "001", "NAME": "GCW&SD/MURRELLS INLET WWTF", "ACTIVITY": "Active", "FAC_TYPE": "Municipal", "HUC_12": "030402061002", "BASIN": "PeeDee", "CNTY_NAME": "Georgetown", "SIC": "4952", "SIC_DESC": "Sewerage Systems", "OBJECTID": 399 }, "geometry": { "type": "Point", "coordinates": [ -79.085391542969489, 33.561980550182007 ] } },
{ "type": "Feature", "properties": { "FEATURE": "ENDPIPE", "NPDES": "SC0037753", "PIPE_": "006", "NAME": "GSW&SA/SCHWARTZ PLANT", "ACTIVITY": "Active", "FAC_TYPE": "Municipal", "HUC_12": "030402061002", "BASIN": "PeeDee", "CNTY_NAME": "Georgetown", "SIC": "4952", "SIC_DESC": "Sewerage Systems", "OBJECTID": 401 }, "geometry": { "type": "Point", "coordinates": [ -79.044212822307841, 33.643352011396424 ] } },
{ "type": "Feature", "properties": { "FEATURE": "ENDPIPE", "NPDES": "SC0037753", "PIPE_": "01B", "NAME": "GSW&SA/SCHWARTZ PLANT", "ACTIVITY": "Active", "FAC_TYPE": "Municipal", "HUC_12": "030402061002", "BASIN": "PeeDee", "CNTY_NAME": "Georgetown", "SIC": "4952", "SIC_DESC": "Sewerage Systems", "OBJECTID": 402 }, "geometry": { "type": "Point", "coordinates": [ -79.091670170834419, 33.567228836763491 ] } },
{ "type": "Feature", "properties": { "FEATURE": "ENDPIPE", "NPDES": "SC0037753", "PIPE_": "001", "NAME": "GSW&SA/SCHWARTZ PLANT", "ACTIVITY": "Active", "FAC_TYPE": "Municipal", "HUC_12": "030402061002", "BASIN": "PeeDee", "CNTY_NAME": "Georgetown", "SIC": "4952", "SIC_DESC": "Sewerage Systems", "OBJECTID": 404 }, "geometry": { "type": "Point", "coordinates": [ -79.090328673398702, 33.568499910830852 ] } },
{ "type": "Feature", "properties": { "FEATURE": "ENDPIPE", "NPDES": "SC0047821", "PIPE_": "002", "NAME": "NORTH, TOWN OF", "ACTIVITY": "Active", "FAC_TYPE": "Municipal", "HUC_12": "030502030210", "BASIN": "Edisto", "CNTY_NAME": "Orangeburg", "SIC": "4952", "SIC_DESC": "Sewerage Systems", "OBJECTID": 407 }, "geometry": { "type": "Point", "coordinates": [ -81.117930356061066, 33.599372583435489 ] } },
{ "type": "Feature", "properties": { "FEATURE": "ENDPIPE", "NPDES": "SC0047821", "PIPE_": "001", "NAME": "NORTH, TOWN OF", "ACTIVITY": "Active", "FAC_TYPE": "Municipal", "HUC_12": "030502030210", "BASIN": "Edisto", "CNTY_NAME": "Orangeburg", "SIC": "4952", "SIC_DESC": "Sewerage Systems", "OBJECTID": 411 }, "geometry": { "type": "Point", "coordinates": [ -81.112356133291087, 33.604403312017347 ] } },
{ "type": "Feature", "properties": { "FEATURE": "ENDPIPE", "NPDES": "SC0026204", "PIPE_": "001", "NAME": "WAGENER, TOWN OF", "ACTIVITY": "Active", "FAC_TYPE": "Municipal", "HUC_12": "030502040205", "BASIN": "Edisto", "CNTY_NAME": "Aiken", "SIC": "4952", "SIC_DESC": "Sewerage Systems", "OBJECTID": 415 }, "geometry": { "type": "Point", "coordinates": [ -81.372464470404481, 33.639835120010943 ] } },
{ "type": "Feature", "properties": { "FEATURE": "ENDPIPE", "NPDES": "SC0028801", "PIPE_": "001", "NAME": "ST MATTHEWS/SOUTH PLANT", "ACTIVITY": "Active", "FAC_TYPE": "Municipal", "HUC_12": "030501110103", "BASIN": "Santee", "CNTY_NAME": "Calhoun", "SIC": "4952", "SIC_DESC": "Sewerage Systems", "OBJECTID": 416 }, "geometry": { "type": "Point", "coordinates": [ -80.761248462493356, 33.644702363049696 ] } },
{ "type": "Feature", "properties": { "FEATURE": "ENDPIPE", "NPDES": "SC0049255", "PIPE_": "002", "NAME": "KINGSTREE/MILLIKEN SITE INDUSTRIAL WWTF", "ACTIVITY": "Active", "FAC_TYPE": "Industrial", "HUC_12": "030402050710", "BASIN": "PeeDee", "CNTY_NAME": "Williamsburg", "SIC": "2221", "SIC_DESC": "Broadwoven Fabric Mills, Manmade Fiber and Silk", "OBJECTID": 418 }, "geometry": { "type": "Point", "coordinates": [ -79.823395715105178, 33.645318348453692 ] } },
{ "type": "Feature", "properties": { "FEATURE": "ENDPIPE", "NPDES": "SC0046388", "PIPE_": "002", "NAME": "KENTUCKY-TENN CLAY/GENTRY PIT", "ACTIVITY": "Active", "FAC_TYPE": "Industrial", "HUC_12": "030502040109", "BASIN": "Edisto", "CNTY_NAME": "Aiken", "SIC": "1455", "SIC_DESC": "Kaolin and Ball Clay", "OBJECTID": 420 }, "geometry": { "type": "Point", "coordinates": [ -81.609949998582394, 33.652253714090946 ] } },
{ "type": "Feature", "properties": { "FEATURE": "ENDPIPE", "NPDES": "SC0040886", "PIPE_": "001", "NAME": "GSW&SA/J L BUCKSPORT WWTF", "ACTIVITY": "Active", "FAC_TYPE": "Municipal", "HUC_12": "030402061002", "BASIN": "PeeDee", "CNTY_NAME": "Horry", "SIC": "4952", "SIC_DESC": "Sewerage Systems", "OBJECTID": 421 }, "geometry": { "type": "Point", "coordinates": [ -79.095422259377742, 33.640231918713589 ] } },
{ "type": "Feature", "properties": { "FEATURE": "ENDPIPE", "NPDES": "SC0037753", "PIPE_": "005", "NAME": "GSW&SA/SCHWARTZ PLANT", "ACTIVITY": "Active", "FAC_TYPE": "Municipal", "HUC_12": "030402061002", "BASIN": "PeeDee", "CNTY_NAME": "Horry", "SIC": "4952", "SIC_DESC": "Sewerage Systems", "OBJECTID": 424 }, "geometry": { "type": "Point", "coordinates": [ -79.059975731956001, 33.643921114103179 ] } },
{ "type": "Feature", "properties": { "FEATURE": "ENDPIPE", "NPDES": "SC0046388", "PIPE_": "001", "NAME": "KENTUCKY-TENN CLAY/GENTRY PIT", "ACTIVITY": "Active", "FAC_TYPE": "Industrial", "HUC_12": "030502040109", "BASIN": "Edisto", "CNTY_NAME": "Aiken", "SIC": "1455", "SIC_DESC": "Kaolin and Ball Clay", "OBJECTID": 425 }, "geometry": { "type": "Point", "coordinates": [ -81.610720706182605, 33.660308588141717 ] } },
{ "type": "Feature", "properties": { "FEATURE": "ENDPIPE", "NPDES": "SC0047317", "PIPE_": "001", "NAME": "US ARMY/J STROM THURMOND PWRPL", "ACTIVITY": "Active", "FAC_TYPE": "Industrial", "HUC_12": "030601060105", "BASIN": "Savannah", "CNTY_NAME": "McCormick", "SIC": "4911", "SIC_DESC": "Electric Services", "OBJECTID": 426 }, "geometry": { "type": "Point", "coordinates": [ -82.197769776941669, 33.660660998996406 ] } },
{ "type": "Feature", "properties": { "FEATURE": "ENDPIPE", "NPDES": "SC0037753", "PIPE_": "002", "NAME": "GSW&SA/SCHWARTZ PLANT", "ACTIVITY": "Active", "FAC_TYPE": "Municipal", "HUC_12": "030402060906", "BASIN": "PeeDee", "CNTY_NAME": "Horry", "SIC": "4952", "SIC_DESC": "Sewerage Systems", "OBJECTID": 427 }, "geometry": { "type": "Point", "coordinates": [ -79.044910095224765, 33.655122287929828 ] } },
{ "type": "Feature", "properties": { "FEATURE": "ENDPIPE", "NPDES": "SC0037753", "PIPE_": "003", "NAME": "GSW&SA/SCHWARTZ PLANT", "ACTIVITY": "Active", "FAC_TYPE": "Municipal", "HUC_12": "030402060906", "BASIN": "PeeDee", "CNTY_NAME": "Horry", "SIC": "4952", "SIC_DESC": "Sewerage Systems", "OBJECTID": 428 }, "geometry": { "type": "Point", "coordinates": [ -79.042087260875036, 33.655230892102367 ] } },
{ "type": "Feature", "properties": { "FEATURE": "ENDPIPE", "NPDES": "SC0037753", "PIPE_": "004", "NAME": "GSW&SA/SCHWARTZ PLANT", "ACTIVITY": "Active", "FAC_TYPE": "Municipal", "HUC_12": "030402060906", "BASIN": "PeeDee", "CNTY_NAME": "Horry", "SIC": "4952", "SIC_DESC": "Sewerage Systems", "OBJECTID": 429 }, "geometry": { "type": "Point", "coordinates": [ -79.041267520064139, 33.658750458936979 ] } },
{ "type": "Feature", "properties": { "FEATURE": "ENDPIPE", "NPDES": "SC0042170", "PIPE_": "001", "NAME": "PINEWOOD SITE CUSTODIAL TRUST", "ACTIVITY": "Active", "FAC_TYPE": "Industrial", "HUC_12": "030501110109", "BASIN": "Santee", "CNTY_NAME": "Sumter", "SIC": "4953", "SIC_DESC": "Refuse Systems", "OBJECTID": 435 }, "geometry": { "type": "Point", "coordinates": [ -80.527250252265176, 33.690063563554062 ] } },
{ "type": "Feature", "properties": { "FEATURE": "ENDPIPE", "NPDES": "SC0039101", "PIPE_": "001", "NAME": "GCSD/PLEASANT HILL ELEM", "ACTIVITY": "Active", "FAC_TYPE": "Domestic", "HUC_12": "030402070204", "BASIN": "PeeDee", "CNTY_NAME": "Georgetown", "SIC": "8211", "SIC_DESC": "Elementary and Secondary Schools", "OBJECTID": 436 }, "geometry": { "type": "Point", "coordinates": [ -79.357523990906159, 33.680481477900528 ] } },
{ "type": "Feature", "properties": { "FEATURE": "ENDPIPE", "NPDES": "SC0042170", "PIPE_": "002", "NAME": "PINEWOOD SITE CUSTODIAL TRUST", "ACTIVITY": "Active", "FAC_TYPE": "Industrial", "HUC_12": "030501110109", "BASIN": "Santee", "CNTY_NAME": "Sumter", "SIC": "4953", "SIC_DESC": "Refuse Systems", "OBJECTID": 438 }, "geometry": { "type": "Point", "coordinates": [ -80.528284634846827, 33.693776685507721 ] } },
{ "type": "Feature", "properties": { "FEATURE": "ENDPIPE", "NPDES": "SC0042170", "PIPE_": "02A", "NAME": "PINEWOOD SITE CUSTODIAL TRUST", "ACTIVITY": "Active", "FAC_TYPE": "Industrial", "HUC_12": "030501110109", "BASIN": "Santee", "CNTY_NAME": "Sumter", "SIC": "4953", "SIC_DESC": "Refuse Systems", "OBJECTID": 439 }, "geometry": { "type": "Point", "coordinates": [ -80.528284634846827, 33.693776685507721 ] } },
{ "type": "Feature", "properties": { "FEATURE": "ENDPIPE", "NPDES": "SC0047953", "PIPE_": "001", "NAME": "AVX CORP/MYRTLE BEACH PLANT", "ACTIVITY": "Active", "FAC_TYPE": "Industrial", "HUC_12": "030402080308", "BASIN": "PeeDee", "CNTY_NAME": "Horry", "SIC": "3675", "SIC_DESC": "Electronic Capacitors", "OBJECTID": 440 }, "geometry": { "type": "Point", "coordinates": [ -78.913316605305553, 33.677483263520124 ] } },
{ "type": "Feature", "properties": { "FEATURE": "ENDPIPE", "NPDES": "SC0046868", "PIPE_": "001", "NAME": "PINEWOOD, TOWN OF", "ACTIVITY": "Active", "FAC_TYPE": "Municipal", "HUC_12": "030501110102", "BASIN": "Santee", "CNTY_NAME": "Sumter", "SIC": "4952", "SIC_DESC": "Sewerage Systems", "OBJECTID": 447 }, "geometry": { "type": "Point", "coordinates": [ -80.465293053339721, 33.722205695683293 ] } },
{ "type": "Feature", "properties": { "FEATURE": "ENDPIPE", "NPDES": "SC0047813", "PIPE_": "001", "NAME": "FEDERAL PACIFIC ELEC/ODELL DAM", "ACTIVITY": "Active", "FAC_TYPE": "Industrial", "HUC_12": "030601070207", "BASIN": "Savannah", "CNTY_NAME": "Edgefield", "SIC": "4952", "SIC_DESC": "Sewerage Systems", "OBJECTID": 456 }, "geometry": { "type": "Point", "coordinates": [ -81.902135612473472, 33.773561447397704 ] } },
{ "type": "Feature", "properties": { "FEATURE": "ENDPIPE", "NPDES": "SC0034541", "PIPE_": "001", "NAME": "GASTON COPPER RECYCLING CORP", "ACTIVITY": "Active", "FAC_TYPE": "Industrial", "HUC_12": "030502030206", "BASIN": "Edisto", "CNTY_NAME": "Lexington", "SIC": "3341", "SIC_DESC": "Secondary Smelting and Refining of Nonferrous Metals", "OBJECTID": 461 }, "geometry": { "type": "Point", "coordinates": [ -81.118874258810507, 33.792332704938175 ] } },
{ "type": "Feature", "properties": { "FEATURE": "ENDPIPE", "NPDES": "SC0025330", "PIPE_": "001", "NAME": "ECW&SA/BROOKS STREET WWTP", "ACTIVITY": "Active", "FAC_TYPE": "Municipal", "HUC_12": "030601070207", "BASIN": "Savannah", "CNTY_NAME": "Edgefield", "SIC": "4952", "SIC_DESC": "Sewerage Systems", "OBJECTID": 463 }, "geometry": { "type": "Point", "coordinates": [ -81.94102632530975, 33.791703132766592 ] } },
{ "type": "Feature", "properties": { "FEATURE": "ENDPIPE", "NPDES": "SC0033367", "PIPE_": "001", "NAME": "DEVRO INC/CORIA DIVISION", "ACTIVITY": "Active", "FAC_TYPE": "Industrial", "HUC_12": "030501100310", "BASIN": "Saluda", "CNTY_NAME": "Calhoun", "SIC": "2013", "SIC_DESC": "Sausages and Other Prepared Meats", "OBJECTID": 465 }, "geometry": { "type": "Point", "coordinates": [ -80.916661262923554, 33.811852336694763 ] } },
{ "type": "Feature", "properties": { "FEATURE": "ENDPIPE", "NPDES": "SC0002038", "PIPE_": "03A", "NAME": "SCE&G/WATEREE STATION", "ACTIVITY": "Active", "FAC_TYPE": "Industrial", "HUC_12": "030501040407", "BASIN": "Catawba", "CNTY_NAME": "Richland", "SIC": "4911", "SIC_DESC": "Electric Services", "OBJECTID": 467 }, "geometry": { "type": "Point", "coordinates": [ -80.616135541177812, 33.813743156646353 ] } },
{ "type": "Feature", "properties": { "FEATURE": "ENDPIPE", "NPDES": "SC0025691", "PIPE_": "001", "NAME": "ECW&SA/JOHNSTON #1 PLANT", "ACTIVITY": "Active", "FAC_TYPE": "Municipal", "HUC_12": "030502040101", "BASIN": "Edisto", "CNTY_NAME": "Edgefield", "SIC": "4952", "SIC_DESC": "Sewerage Systems", "OBJECTID": 469 }, "geometry": { "type": "Point", "coordinates": [ -81.789398845976763, 33.816506436194473 ] } },
{ "type": "Feature", "properties": { "FEATURE": "ENDPIPE", "NPDES": "SC0002038", "PIPE_": "03B", "NAME": "SCE&G/WATEREE STATION", "ACTIVITY": "Active", "FAC_TYPE": "Industrial", "HUC_12": "030501040407", "BASIN": "Catawba", "CNTY_NAME": "Richland", "SIC": "4911", "SIC_DESC": "Electric Services", "OBJECTID": 470 }, "geometry": { "type": "Point", "coordinates": [ -80.618124628295746, 33.819300595945201 ] } },
{ "type": "Feature", "properties": { "FEATURE": "ENDPIPE", "NPDES": "SC0039934", "PIPE_": "001", "NAME": "HEMINGWAY, TOWN OF", "ACTIVITY": "Active", "FAC_TYPE": "Municipal", "HUC_12": "030402070203", "BASIN": "PeeDee", "CNTY_NAME": "Williamsburg", "SIC": "4952", "SIC_DESC": "Sewerage Systems", "OBJECTID": 473 }, "geometry": { "type": "Point", "coordinates": [ -79.365201295033074, 33.815603439318025 ] } },
{ "type": "Feature", "properties": { "FEATURE": "ENDPIPE", "NPDES": "SC0021733", "PIPE_": "001", "NAME": "GSW&SA/CONWAY WWTP", "ACTIVITY": "Active", "FAC_TYPE": "Municipal", "HUC_12": "030402060905", "BASIN": "PeeDee", "CNTY_NAME": "Horry", "SIC": "4952", "SIC_DESC": "Sewerage Systems", "OBJECTID": 481 }, "geometry": { "type": "Point", "coordinates": [ -79.066960430618565, 33.817808096769681 ] } },
{ "type": "Feature", "properties": { "FEATURE": "ENDPIPE", "NPDES": "SC0001848", "PIPE_": "001", "NAME": "WESTINGHOUSE ELEC LLC/COLUMBIA", "ACTIVITY": "Active", "FAC_TYPE": "Industrial", "HUC_12": "030501100303", "BASIN": "Saluda", "CNTY_NAME": "Richland", "SIC": "2819", "SIC_DESC": "Industrial Inorganic Chemicals, NEC", "OBJECTID": 486 }, "geometry": { "type": "Point", "coordinates": [ -80.949073133812334, 33.840350279686689 ] } },
{ "type": "Feature", "properties": { "FEATURE": "ENDPIPE", "NPDES": "SC0047911", "PIPE_": "001", "NAME": "RICHLAND CO/EASTOVER REG WWTP", "ACTIVITY": "Active", "FAC_TYPE": "Municipal", "HUC_12": "030501040407", "BASIN": "Catawba", "CNTY_NAME": "Richland", "SIC": "4952", "SIC_DESC": "Sewerage Systems", "OBJECTID": 488 }, "geometry": { "type": "Point", "coordinates": [ -80.627957067500176, 33.841616839284526 ] } },
{ "type": "Feature", "properties": { "FEATURE": "ENDPIPE", "NPDES": "SC0047902", "PIPE_": "001", "NAME": "KEMIRA WATER SOLUTIONS", "ACTIVITY": "Active", "FAC_TYPE": "Industrial", "HUC_12": "030501040407", "BASIN": "Catawba", "CNTY_NAME": "Richland", "SIC": "2819", "SIC_DESC": "Industrial Inorganic Chemicals, NEC", "OBJECTID": 489 }, "geometry": { "type": "Point", "coordinates": [ -80.627957067500176, 33.841616839284526 ] } },
{ "type": "Feature", "properties": { "FEATURE": "ENDPIPE", "NPDES": "SC0022161", "PIPE_": "001", "NAME": "N MYRTLE BEACH/CRESCENT BEACH", "ACTIVITY": "Active", "FAC_TYPE": "Municipal", "HUC_12": "030402080301", "BASIN": "PeeDee", "CNTY_NAME": "Horry", "SIC": "4952", "SIC_DESC": "Sewerage Systems", "OBJECTID": 490 }, "geometry": { "type": "Point", "coordinates": [ -78.716770079609788, 33.821591616228041 ] } },
{ "type": "Feature", "properties": { "FEATURE": "ENDPIPE", "NPDES": "SC0041696", "PIPE_": "005", "NAME": "GSW&SA/GEORGE R VEREEN WWTP", "ACTIVITY": "Active", "FAC_TYPE": "Municipal", "HUC_12": "030402080301", "BASIN": "PeeDee", "CNTY_NAME": "Horry", "SIC": "4952", "SIC_DESC": "Sewerage Systems", "OBJECTID": 492 }, "geometry": { "type": "Point", "coordinates": [ -78.753349636496267, 33.82263342103527 ] } },
{ "type": "Feature", "properties": { "FEATURE": "ENDPIPE", "NPDES": "SC0041696", "PIPE_": "004", "NAME": "GSW&SA/GEORGE R VEREEN WWTP", "ACTIVITY": "Active", "FAC_TYPE": "Municipal", "HUC_12": "030402080301", "BASIN": "PeeDee", "CNTY_NAME": "Horry", "SIC": "4952", "SIC_DESC": "Sewerage Systems", "OBJECTID": 493 }, "geometry": { "type": "Point", "coordinates": [ -78.741889603010407, 33.823765220935336 ] } },
{ "type": "Feature", "properties": { "FEATURE": "ENDPIPE", "NPDES": "SC0025933", "PIPE_": "001", "NAME": "JOHNSONVILLE/EAST PLANT", "ACTIVITY": "Active", "FAC_TYPE": "Municipal", "HUC_12": "030402020705", "BASIN": "PeeDee", "CNTY_NAME": "Florence", "SIC": "4952", "SIC_DESC": "Sewerage Systems", "OBJECTID": 496 }, "geometry": { "type": "Point", "coordinates": [ -79.445025535693162, 33.838677898361261 ] } },
{ "type": "Feature", "properties": { "FEATURE": "ENDPIPE", "NPDES": "SC0041696", "PIPE_": "003", "NAME": "GSW&SA/GEORGE R VEREEN WWTP", "ACTIVITY": "Active", "FAC_TYPE": "Municipal", "HUC_12": "030402080301", "BASIN": "PeeDee", "CNTY_NAME": "Horry", "SIC": "4952", "SIC_DESC": "Sewerage Systems", "OBJECTID": 501 }, "geometry": { "type": "Point", "coordinates": [ -78.736436395747205, 33.830026327179731 ] } },
{ "type": "Feature", "properties": { "FEATURE": "ENDPIPE", "NPDES": "SC0022152", "PIPE_": "001", "NAME": "N MYRTLE BEACH/OCEAN DRIVE", "ACTIVITY": "Active", "FAC_TYPE": "Municipal", "HUC_12": "030402080301", "BASIN": "PeeDee", "CNTY_NAME": "Horry", "SIC": "4952", "SIC_DESC": "Sewerage Systems", "OBJECTID": 505 }, "geometry": { "type": "Point", "coordinates": [ -78.687292490747794, 33.832328311984455 ] } },
{ "type": "Feature", "properties": { "FEATURE": "ENDPIPE", "NPDES": "SC0041696", "PIPE_": "002", "NAME": "GSW&SA/GEORGE R VEREEN WWTP", "ACTIVITY": "Active", "FAC_TYPE": "Municipal", "HUC_12": "030402080301", "BASIN": "PeeDee", "CNTY_NAME": "Horry", "SIC": "4952", "SIC_DESC": "Sewerage Systems", "OBJECTID": 508 }, "geometry": { "type": "Point", "coordinates": [ -78.718924169843802, 33.835455947475509 ] } },
{ "type": "Feature", "properties": { "FEATURE": "ENDPIPE", "NPDES": "SC0038121", "PIPE_": "001", "NAME": "INTERNATIONAL PAPER/EASTOVER", "ACTIVITY": "Active", "FAC_TYPE": "Industrial", "HUC_12": "030501040407", "BASIN": "Catawba", "CNTY_NAME": "Richland", "SIC": "2621", "SIC_DESC": "Paper Mills", "OBJECTID": 515 }, "geometry": { "type": "Point", "coordinates": [ -80.628997338671084, 33.85991290039815 ] } },
{ "type": "Feature", "properties": { "FEATURE": "ENDPIPE", "NPDES": "SC0041696", "PIPE_": "001", "NAME": "GSW&SA/GEORGE R VEREEN WWTP", "ACTIVITY": "Active", "FAC_TYPE": "Municipal", "HUC_12": "030402080301", "BASIN": "PeeDee", "CNTY_NAME": "Horry", "SIC": "4952", "SIC_DESC": "Sewerage Systems", "OBJECTID": 519 }, "geometry": { "type": "Point", "coordinates": [ -78.726227666896577, 33.841230695321357 ] } },
{ "type": "Feature", "properties": { "FEATURE": "ENDPIPE", "NPDES": "SC0001333", "PIPE_": "001", "NAME": "EASTMAN CHEMICAL/SC OPERATIONS", "ACTIVITY": "Active", "FAC_TYPE": "Industrial", "HUC_12": "030501100303", "BASIN": "Saluda", "CNTY_NAME": "Calhoun", "SIC": "2865", "SIC_DESC": "Cyclic Organic Crudes and Intermediates, and Organic Dyes and Pigments", "OBJECTID": 522 }, "geometry": { "type": "Point", "coordinates": [ -81.003983791884224, 33.862746237869445 ] } },
{ "type": "Feature", "properties": { "FEATURE": "ENDPIPE", "NPDES": "SC0001333", "PIPE_": "01F", "NAME": "EASTMAN CHEMICAL/SC OPERATIONS", "ACTIVITY": "Active", "FAC_TYPE": "Industrial", "HUC_12": "030501100303", "BASIN": "Saluda", "CNTY_NAME": "Calhoun", "SIC": "2865", "SIC_DESC": "Cyclic Organic Crudes and Intermediates, and Organic Dyes and Pigments", "OBJECTID": 524 }, "geometry": { "type": "Point", "coordinates": [ -81.003983791884224, 33.862746237869445 ] } },
{ "type": "Feature", "properties": { "FEATURE": "ENDPIPE", "NPDES": "SC0001333", "PIPE_": "01E", "NAME": "EASTMAN CHEMICAL/SC OPERATIONS", "ACTIVITY": "Active", "FAC_TYPE": "Industrial", "HUC_12": "030501100303", "BASIN": "Saluda", "CNTY_NAME": "Calhoun", "SIC": "2865", "SIC_DESC": "Cyclic Organic Crudes and Intermediates, and Organic Dyes and Pigments", "OBJECTID": 525 }, "geometry": { "type": "Point", "coordinates": [ -81.003983791884224, 33.862746237869445 ] } },
{ "type": "Feature", "properties": { "FEATURE": "ENDPIPE", "NPDES": "SC0024465", "PIPE_": "001", "NAME": "BATESBURG-LEESVILLE WWTF", "ACTIVITY": "Active", "FAC_TYPE": "Municipal", "HUC_12": "030502030101", "BASIN": "Edisto", "CNTY_NAME": "Lexington", "SIC": "4952", "SIC_DESC": "Sewerage Systems", "OBJECTID": 529 }, "geometry": { "type": "Point", "coordinates": [ -81.546177260337387, 33.869373679402678 ] } },
{ "type": "Feature", "properties": { "FEATURE": "ENDPIPE", "NPDES": "SC0046311", "PIPE_": "001", "NAME": "LAKE CITY/LAKE SWAMP WW PLANT", "ACTIVITY": "Active", "FAC_TYPE": "Municipal", "HUC_12": "030402020704", "BASIN": "PeeDee", "CNTY_NAME": "Florence", "SIC": "4952", "SIC_DESC": "Sewerage Systems", "OBJECTID": 536 }, "geometry": { "type": "Point", "coordinates": [ -79.613752796300346, 33.872319588723812 ] } },
{ "type": "Feature", "properties": { "FEATURE": "ENDPIPE", "NPDES": "SC0038121", "PIPE_": "01A", "NAME": "INTERNATIONAL PAPER/EASTOVER", "ACTIVITY": "Active", "FAC_TYPE": "Industrial", "HUC_12": "030501040406", "BASIN": "Catawba", "CNTY_NAME": "Richland", "SIC": "2621", "SIC_DESC": "Paper Mills", "OBJECTID": 537 }, "geometry": { "type": "Point", "coordinates": [ -80.634930282269735, 33.882494001543478 ] } },
{ "type": "Feature", "properties": { "FEATURE": "ENDPIPE", "NPDES": "SC0000396", "PIPE_": "001", "NAME": "MILLIKEN/MCCORMICK PLANT", "ACTIVITY": "Active", "FAC_TYPE": "Industrial", "HUC_12": "030601070107", "BASIN": "Savannah", "CNTY_NAME": "McCormick", "SIC": "2221", "SIC_DESC": "Broadwoven Fabric Mills, Manmade Fiber and Silk", "OBJECTID": 550 }, "geometry": { "type": "Point", "coordinates": [ -82.281401751131014, 33.906508543573921 ] } },
{ "type": "Feature", "properties": { "FEATURE": "ENDPIPE", "NPDES": "SC0030783", "PIPE_": "001", "NAME": "MCCORMICK/ROCKY CREEK WWTF", "ACTIVITY": "Active", "FAC_TYPE": "Municipal", "HUC_12": "030601070107", "BASIN": "Savannah", "CNTY_NAME": "McCormick", "SIC": "4952", "SIC_DESC": "Sewerage Systems", "OBJECTID": 559 }, "geometry": { "type": "Point", "coordinates": [ -82.267312014806407, 33.916795309373967 ] } },
{ "type": "Feature", "properties": { "FEATURE": "ENDPIPE", "NPDES": "SC0038865", "PIPE_": "001", "NAME": "EAST RICH CO PSD/GILLS CREEK", "ACTIVITY": "Active", "FAC_TYPE": "Municipal", "HUC_12": "030501100303", "BASIN": "Saluda", "CNTY_NAME": "Richland", "SIC": "4952", "SIC_DESC": "Sewerage Systems", "OBJECTID": 565 }, "geometry": { "type": "Point", "coordinates": [ -81.016944734611656, 33.932397179297752 ] } },
{ "type": "Feature", "properties": { "FEATURE": "ENDPIPE", "NPDES": "SC0020940", "PIPE_": "001", "NAME": "COLUMBIA/METRO PLANT", "ACTIVITY": "Active", "FAC_TYPE": "Municipal", "HUC_12": "030501100303", "BASIN": "Saluda", "CNTY_NAME": "Richland", "SIC": "4952", "SIC_DESC": "Sewerage Systems", "OBJECTID": 569 }, "geometry": { "type": "Point", "coordinates": [ -81.018664834658637, 33.937267200170439 ] } },
{ "type": "Feature", "properties": { "FEATURE": "ENDPIPE", "NPDES": "SC0033235", "PIPE_": "001", "NAME": "SOUTH FORGE APARTMENTS", "ACTIVITY": "Active", "FAC_TYPE": "Domestic", "HUC_12": "030501040406", "BASIN": "Catawba", "CNTY_NAME": "Sumter", "SIC": "6513", "SIC_DESC": "Operators of Apartment Buildings", "OBJECTID": 571 }, "geometry": { "type": "Point", "coordinates": [ -80.520233797637005, 33.93779047711913 ] } },
{ "type": "Feature", "properties": { "FEATURE": "ENDPIPE", "NPDES": "SC0039021", "PIPE_": "001", "NAME": "SOLAR FARMS INC", "ACTIVITY": "Active", "FAC_TYPE": "Industrial", "HUC_12": "030501100104", "BASIN": "Saluda", "CNTY_NAME": "Lexington", "SIC": "0182", "SIC_DESC": "Food Crops Grown Under Cover", "OBJECTID": 605 }, "geometry": { "type": "Point", "coordinates": [ -81.110793595186081, 33.978888698007914 ] } },
{ "type": "Feature", "properties": { "FEATURE": "ENDPIPE", "NPDES": "SC0021351", "PIPE_": "002", "NAME": "PAMPLICO, TOWN OF", "ACTIVITY": "Active", "FAC_TYPE": "Municipal", "HUC_12": "030402011201", "BASIN": "PeeDee", "CNTY_NAME": "Florence", "SIC": "4952", "SIC_DESC": "Sewerage Systems", "OBJECTID": 607 }, "geometry": { "type": "Point", "coordinates": [ -79.499327472015111, 33.970555434998936 ] } },
{ "type": "Feature", "properties": { "FEATURE": "ENDPIPE", "NPDES": "SC0030678", "PIPE_": "001", "NAME": "CWS/OAKLAND PLANTATION SD", "ACTIVITY": "Active", "FAC_TYPE": "Domestic", "HUC_12": "030501040405", "BASIN": "Catawba", "CNTY_NAME": "Sumter", "SIC": "6514", "SIC_DESC": "Operators of Dwellings Other Than Apartment Buildings", "OBJECTID": 610 }, "geometry": { "type": "Point", "coordinates": [ -80.497254234574498, 33.981604807876835 ] } },
{ "type": "Feature", "properties": { "FEATURE": "ENDPIPE", "NPDES": "SC0021351", "PIPE_": "001", "NAME": "PAMPLICO, TOWN OF", "ACTIVITY": "Active", "FAC_TYPE": "Municipal", "HUC_12": "030402020703", "BASIN": "PeeDee", "CNTY_NAME": "Florence", "SIC": "4952", "SIC_DESC": "Sewerage Systems", "OBJECTID": 620 }, "geometry": { "type": "Point", "coordinates": [ -79.575528832076998, 33.983072866614009 ] } },
{ "type": "Feature", "properties": { "FEATURE": "ENDPIPE", "NPDES": "SC0002062", "PIPE_": "001", "NAME": "COLUMBIA HYDROELECTRIC PROJECT", "ACTIVITY": "Active", "FAC_TYPE": "Industrial", "HUC_12": "030501100301", "BASIN": "Saluda", "CNTY_NAME": "Richland", "SIC": "4911", "SIC_DESC": "Electric Services", "OBJECTID": 624 }, "geometry": { "type": "Point", "coordinates": [ -81.049002751223227, 33.9970411014409 ] } },
{ "type": "Feature", "properties": { "FEATURE": "ENDPIPE", "NPDES": "SC0027162", "PIPE_": "001", "NAME": "CWS/WATERGATE DEVELOPMENT", "ACTIVITY": "Active", "FAC_TYPE": "Domestic", "HUC_12": "030501091402", "BASIN": "Saluda", "CNTY_NAME": "Lexington", "SIC": "6514", "SIC_DESC": "Operators of Dwellings Other Than Apartment Buildings", "OBJECTID": 625 }, "geometry": { "type": "Point", "coordinates": [ -81.244438712915596, 33.996983891579106 ] } },
{ "type": "Feature", "properties": { "FEATURE": "ENDPIPE", "NPDES": "SC0022381", "PIPE_": "001", "NAME": "SALUDA, TOWN OF", "ACTIVITY": "Active", "FAC_TYPE": "Municipal", "HUC_12": "030501091104", "BASIN": "Saluda", "CNTY_NAME": "Saluda", "SIC": "4952", "SIC_DESC": "Sewerage Systems", "OBJECTID": 634 }, "geometry": { "type": "Point", "coordinates": [ -81.750138288693066, 34.003408243173872 ] } },
{ "type": "Feature", "properties": { "FEATURE": "ENDPIPE", "NPDES": "SC0046108", "PIPE_": "001", "NAME": "SCARNG/MCCRADY TRAINING CENTER", "ACTIVITY": "Active", "FAC_TYPE": "Industrial", "HUC_12": "030501040404", "BASIN": "Catawba", "CNTY_NAME": "Richland", "SIC": "9711", "SIC_DESC": "National Security", "OBJECTID": 642 }, "geometry": { "type": "Point", "coordinates": [ -80.722215503735342, 34.010606032013165 ] } },
{ "type": "Feature", "properties": { "FEATURE": "ENDPIPE", "NPDES": "SC0032743", "PIPE_": "001", "NAME": "DEVELOPMENT SERVICE INC", "ACTIVITY": "Active", "FAC_TYPE": "Domestic", "HUC_12": "030501091403", "BASIN": "Saluda", "CNTY_NAME": "Lexington", "SIC": "6552", "SIC_DESC": "Land Subdividers and Developers, Except Cemeteries", "OBJECTID": 652 }, "geometry": { "type": "Point", "coordinates": [ -81.10645523134734, 34.02402317458607 ] } },
{ "type": "Feature", "properties": { "FEATURE": "ENDPIPE", "NPDES": "SC0029475", "PIPE_": "001", "NAME": "WOODLAND HILLS WEST SD", "ACTIVITY": "Active", "FAC_TYPE": "Domestic", "HUC_12": "030501091403", "BASIN": "Saluda", "CNTY_NAME": "Lexington", "SIC": "6514", "SIC_DESC": "Operators of Dwellings Other Than Apartment Buildings", "OBJECTID": 655 }, "geometry": { "type": "Point", "coordinates": [ -81.128652990756123, 34.026455090406898 ] } },
{ "type": "Feature", "properties": { "FEATURE": "ENDPIPE", "NPDES": "SC0029483", "PIPE_": "001", "NAME": "ALPINE UTILITIES/STOOP CREEK", "ACTIVITY": "Active", "FAC_TYPE": "Domestic", "HUC_12": "030501091403", "BASIN": "Saluda", "CNTY_NAME": "Lexington", "SIC": "6552", "SIC_DESC": "Land Subdividers and Developers, Except Cemeteries", "OBJECTID": 656 }, "geometry": { "type": "Point", "coordinates": [ -81.113948251449855, 34.028740096786287 ] } },
{ "type": "Feature", "properties": { "FEATURE": "ENDPIPE", "NPDES": "SC0031895", "PIPE_": "001", "NAME": "SCENIC LAKE PARK", "ACTIVITY": "Active", "FAC_TYPE": "Domestic", "HUC_12": "030501040306", "BASIN": "Catawba", "CNTY_NAME": "Sumter", "SIC": "6515", "SIC_DESC": "Operators of Residential Mobile Home Sites", "OBJECTID": 659 }, "geometry": { "type": "Point", "coordinates": [ -80.475125425364837, 34.035541584158338 ] } },
{ "type": "Feature", "properties": { "FEATURE": "ENDPIPE", "NPDES": "SC0003557", "PIPE_": "001", "NAME": "SHAW INDUSTRIES GROUP/COLUMBIA", "ACTIVITY": "Active", "FAC_TYPE": "Industrial", "HUC_12": "030501091403", "BASIN": "Saluda", "CNTY_NAME": "Lexington", "SIC": "2824", "SIC_DESC": "Manmade Organic Fibers, Except Cellulosic", "OBJECTID": 661 }, "geometry": { "type": "Point", "coordinates": [ -81.157945815274019, 34.040769962469909 ] } },
{ "type": "Feature", "properties": { "FEATURE": "ENDPIPE", "NPDES": "SC0003557", "PIPE_": "003", "NAME": "SHAW INDUSTRIES GROUP/COLUMBIA", "ACTIVITY": "Active", "FAC_TYPE": "Industrial", "HUC_12": "030501091403", "BASIN": "Saluda", "CNTY_NAME": "Lexington", "SIC": "2824", "SIC_DESC": "Manmade Organic Fibers, Except Cellulosic", "OBJECTID": 662 }, "geometry": { "type": "Point", "coordinates": [ -81.157945815274019, 34.040769962469909 ] } },
{ "type": "Feature", "properties": { "FEATURE": "ENDPIPE", "NPDES": "SC0003557", "PIPE_": "002", "NAME": "SHAW INDUSTRIES GROUP/COLUMBIA", "ACTIVITY": "Active", "FAC_TYPE": "Industrial", "HUC_12": "030501091403", "BASIN": "Saluda", "CNTY_NAME": "Lexington", "SIC": "2824", "SIC_DESC": "Manmade Organic Fibers, Except Cellulosic", "OBJECTID": 665 }, "geometry": { "type": "Point", "coordinates": [ -81.149724119971495, 34.044315637943093 ] } },
{ "type": "Feature", "properties": { "FEATURE": "ENDPIPE", "NPDES": "SC0048330", "PIPE_": "001", "NAME": "PHILIPS ELECTRONICS N AMERICA", "ACTIVITY": "Active", "FAC_TYPE": "Industrial", "HUC_12": "030501091403", "BASIN": "Saluda", "CNTY_NAME": "Lexington", "SIC": "3675", "SIC_DESC": "Electronic Capacitors", "OBJECTID": 666 }, "geometry": { "type": "Point", "coordinates": [ -81.165851580453634, 34.044843579397345 ] } },
{ "type": "Feature", "properties": { "FEATURE": "ENDPIPE", "NPDES": "SC0002046", "PIPE_": "005", "NAME": "SCE&G/MCMEEKIN STEAM STATION", "ACTIVITY": "Active", "FAC_TYPE": "Industrial", "HUC_12": "030501091403", "BASIN": "Saluda", "CNTY_NAME": "Lexington", "SIC": "4911", "SIC_DESC": "Electric Services", "OBJECTID": 668 }, "geometry": { "type": "Point", "coordinates": [ -81.206392190335549, 34.048062060723744 ] } },
{ "type": "Feature", "properties": { "FEATURE": "ENDPIPE", "NPDES": "SC0002046", "PIPE_": "003", "NAME": "SCE&G/MCMEEKIN STEAM STATION", "ACTIVITY": "Active", "FAC_TYPE": "Industrial", "HUC_12": "030501091403", "BASIN": "Saluda", "CNTY_NAME": "Lexington", "SIC": "4911", "SIC_DESC": "Electric Services", "OBJECTID": 673 }, "geometry": { "type": "Point", "coordinates": [ -81.213058901900794, 34.053062899379505 ] } },
{ "type": "Feature", "properties": { "FEATURE": "ENDPIPE", "NPDES": "SC0002071", "PIPE_": "005", "NAME": "SCE&G/SALUDA HYDRO STATION", "ACTIVITY": "Active", "FAC_TYPE": "Industrial", "HUC_12": "030501091403", "BASIN": "Saluda", "CNTY_NAME": "Lexington", "SIC": "4911", "SIC_DESC": "Electric Services", "OBJECTID": 677 }, "geometry": { "type": "Point", "coordinates": [ -81.216947773683501, 34.053062861836978 ] } },
{ "type": "Feature", "properties": { "FEATURE": "ENDPIPE", "NPDES": "SC0002071", "PIPE_": "008", "NAME": "SCE&G/SALUDA HYDRO STATION", "ACTIVITY": "Active", "FAC_TYPE": "Industrial", "HUC_12": "030501091403", "BASIN": "Saluda", "CNTY_NAME": "Lexington", "SIC": "4911", "SIC_DESC": "Electric Services", "OBJECTID": 680 }, "geometry": { "type": "Point", "coordinates": [ -81.216947773683501, 34.053062861836978 ] } },
{ "type": "Feature", "properties": { "FEATURE": "ENDPIPE", "NPDES": "SC0002046", "PIPE_": "001", "NAME": "SCE&G/MCMEEKIN STEAM STATION", "ACTIVITY": "Active", "FAC_TYPE": "Industrial", "HUC_12": "030501091403", "BASIN": "Saluda", "CNTY_NAME": "Lexington", "SIC": "4911", "SIC_DESC": "Electric Services", "OBJECTID": 683 }, "geometry": { "type": "Point", "coordinates": [ -81.217123112464577, 34.053306060404672 ] } },
{ "type": "Feature", "properties": { "FEATURE": "ENDPIPE", "NPDES": "SC0039284", "PIPE_": "01A", "NAME": "MCCALL FARMS INC", "ACTIVITY": "Active", "FAC_TYPE": "Industrial", "HUC_12": "030402020701", "BASIN": "PeeDee", "CNTY_NAME": "Florence", "SIC": "2033", "SIC_DESC": "Canned Fruits, Vegetables, Preserves, Jams, and Jellies", "OBJECTID": 688 }, "geometry": { "type": "Point", "coordinates": [ -79.760182384344475, 34.055654774248467 ] } },
{ "type": "Feature", "properties": { "FEATURE": "ENDPIPE", "NPDES": "SC0025348", "PIPE_": "001", "NAME": "GSW&SA/LORIS WWTF", "ACTIVITY": "Active", "FAC_TYPE": "Municipal", "HUC_12": "030402040602", "BASIN": "PeeDee", "CNTY_NAME": "Horry", "SIC": "4952", "SIC_DESC": "Sewerage Systems", "OBJECTID": 695 }, "geometry": { "type": "Point", "coordinates": [ -78.913620649711362, 34.058688521787232 ] } },
{ "type": "Feature", "properties": { "FEATURE": "ENDPIPE", "NPDES": "SC0045349", "PIPE_": "001", "NAME": "SC DEPT CORR/WATEREE RIVER", "ACTIVITY": "Active", "FAC_TYPE": "Domestic", "HUC_12": "030501040307", "BASIN": "Catawba", "CNTY_NAME": "Sumter", "SIC": "9223", "SIC_DESC": "Correctional Institutions", "OBJECTID": 696 }, "geometry": { "type": "Point", "coordinates": [ -80.618825790596048, 34.079464809670824 ] } },
{ "type": "Feature", "properties": { "FEATURE": "ENDPIPE", "NPDES": "SC0042676", "PIPE_": "001", "NAME": "LYNCHBURG WWTF", "ACTIVITY": "Active", "FAC_TYPE": "Municipal", "HUC_12": "030402020504", "BASIN": "PeeDee", "CNTY_NAME": "Florence", "SIC": "4952", "SIC_DESC": "Sewerage Systems", "OBJECTID": 697 }, "geometry": { "type": "Point", "coordinates": [ -80.044966812100228, 34.076719005792853 ] } },
{ "type": "Feature", "properties": { "FEATURE": "ENDPIPE", "NPDES": "SC0025721", "PIPE_": "001", "NAME": "CALHOUN FALLS, TOWN OF", "ACTIVITY": "Active", "FAC_TYPE": "Municipal", "HUC_12": "030601030509", "BASIN": "Savannah", "CNTY_NAME": "Abbeville", "SIC": "4952", "SIC_DESC": "Sewerage Systems", "OBJECTID": 700 }, "geometry": { "type": "Point", "coordinates": [ -82.586328639812621, 34.081617973630379 ] } },
{ "type": "Feature", "properties": { "FEATURE": "ENDPIPE", "NPDES": "SC0046264", "PIPE_": "001", "NAME": "AMPHENOL CORPORATION", "ACTIVITY": "Active", "FAC_TYPE": "Industrial", "HUC_12": "030501100201", "BASIN": "Saluda", "CNTY_NAME": "Richland", "SIC": "2869", "SIC_DESC": "Industrial Organic Chemicals, NEC", "OBJECTID": 705 }, "geometry": { "type": "Point", "coordinates": [ -80.887158748310867, 34.107635463060774 ] } },
{ "type": "Feature", "properties": { "FEATURE": "ENDPIPE", "NPDES": "SC0034703", "PIPE_": "001", "NAME": "COMMANDER NURSING CENTER", "ACTIVITY": "Active", "FAC_TYPE": "Domestic", "HUC_12": "030402010904", "BASIN": "PeeDee", "CNTY_NAME": "Florence", "SIC": "8059", "SIC_DESC": "Nursing and Personal Care Facilities, NEC", "OBJECTID": 706 }, "geometry": { "type": "Point", "coordinates": [ -79.70229336738943, 34.102980763509322 ] } },
{ "type": "Feature", "properties": { "FEATURE": "ENDPIPE", "NPDES": "SC0000876", "PIPE_": "001", "NAME": "WestRock CP LLC", "ACTIVITY": "Active", "FAC_TYPE": "Industrial", "HUC_12": "030402011003", "BASIN": "PeeDee", "CNTY_NAME": "Florence", "SIC": "2631", "SIC_DESC": "Paperboard Mills", "OBJECTID": 711 }, "geometry": { "type": "Point", "coordinates": [ -79.526115246665668, 34.114859810866747 ] } },
{ "type": "Feature", "properties": { "FEATURE": "ENDPIPE", "NPDES": "SC0025356", "PIPE_": "001", "NAME": "TIMMONSVILLE, TOWN OF", "ACTIVITY": "Active", "FAC_TYPE": "Municipal", "HUC_12": "030402020405", "BASIN": "PeeDee", "CNTY_NAME": "Florence", "SIC": "4952", "SIC_DESC": "Sewerage Systems", "OBJECTID": 713 }, "geometry": { "type": "Point", "coordinates": [ -79.947353627295811, 34.121659654657272 ] } },
{ "type": "Feature", "properties": { "FEATURE": "ENDPIPE", "NPDES": "SC0046621", "PIPE_": "001", "NAME": "RICHLAND CO/BROAD RIVER WWTF", "ACTIVITY": "Active", "FAC_TYPE": "Municipal", "HUC_12": "030501060708", "BASIN": "Broad", "CNTY_NAME": "Richland", "SIC": "4952", "SIC_DESC": "Sewerage Systems", "OBJECTID": 715 }, "geometry": { "type": "Point", "coordinates": [ -81.138492823210399, 34.132992449670475 ] } },
{ "type": "Feature", "properties": { "FEATURE": "ENDPIPE", "NPDES": "SC0043702", "PIPE_": "001", "NAME": "LAMAR WWTF", "ACTIVITY": "Active", "FAC_TYPE": "Municipal", "HUC_12": "030402020504", "BASIN": "PeeDee", "CNTY_NAME": "Darlington", "SIC": "4952", "SIC_DESC": "Sewerage Systems", "OBJECTID": 716 }, "geometry": { "type": "Point", "coordinates": [ -80.129289858675307, 34.130323917598737 ] } },
{ "type": "Feature", "properties": { "FEATURE": "ENDPIPE", "NPDES": "SC0040614", "PIPE_": "001", "NAME": "ABBEVILLE/LONG CANE CREEK", "ACTIVITY": "Active", "FAC_TYPE": "Municipal", "HUC_12": "030601030609", "BASIN": "Savannah", "CNTY_NAME": "Abbeville", "SIC": "4952", "SIC_DESC": "Sewerage Systems", "OBJECTID": 717 }, "geometry": { "type": "Point", "coordinates": [ -82.32854876064043, 34.127468115728618 ] } },
{ "type": "Feature", "properties": { "FEATURE": "ENDPIPE", "NPDES": "SC0023477", "PIPE_": "001", "NAME": "MILLIKEN/SHARON PLANT", "ACTIVITY": "Active", "FAC_TYPE": "Industrial", "HUC_12": "030601030511", "BASIN": "Savannah", "CNTY_NAME": "Abbeville", "SIC": "2221", "SIC_DESC": "Broadwoven Fabric Mills, Manmade Fiber and Silk", "OBJECTID": 718 }, "geometry": { "type": "Point", "coordinates": [ -82.425026355396611, 34.126438122995324 ] } },
{ "type": "Feature", "properties": { "FEATURE": "ENDPIPE", "NPDES": "SC0000299", "PIPE_": "001", "NAME": "MOHAWK IND/ROCKY RIVER PLANT", "ACTIVITY": "Active", "FAC_TYPE": "Industrial", "HUC_12": "030601030207", "BASIN": "Savannah", "CNTY_NAME": "Abbeville", "SIC": "2281", "SIC_DESC": "Yarn Spinning Mills", "OBJECTID": 719 }, "geometry": { "type": "Point", "coordinates": [ -82.62200432633351, 34.124194513981159 ] } },
{ "type": "Feature", "properties": { "FEATURE": "ENDPIPE", "NPDES": "SC0034444", "PIPE_": "001", "NAME": "UNITED UTIL/HIGHLAND FOREST SD", "ACTIVITY": "Active", "FAC_TYPE": "Domestic", "HUC_12": "030501090703", "BASIN": "Saluda", "CNTY_NAME": "Greenwood", "SIC": "6514", "SIC_DESC": "Operators of Dwellings Other Than Apartment Buildings", "OBJECTID": 725 }, "geometry": { "type": "Point", "coordinates": [ -82.129777886908883, 34.15263891783426 ] } },
{ "type": "Feature", "properties": { "FEATURE": "ENDPIPE", "NPDES": "SC0036048", "PIPE_": "001", "NAME": "NINETY SIX WWTF", "ACTIVITY": "Active", "FAC_TYPE": "Municipal", "HUC_12": "030501090704", "BASIN": "Saluda", "CNTY_NAME": "Greenwood", "SIC": "4952", "SIC_DESC": "Sewerage Systems", "OBJECTID": 728 }, "geometry": { "type": "Point", "coordinates": [ -81.983653117607815, 34.155324036585547 ] } },
{ "type": "Feature", "properties": { "FEATURE": "ENDPIPE", "NPDES": "SC0022870", "PIPE_": "001", "NAME": "GREENWOOD/WEST ALEXANDER WWTF", "ACTIVITY": "Active", "FAC_TYPE": "Municipal", "HUC_12": "030601070101", "BASIN": "Savannah", "CNTY_NAME": "Greenwood", "SIC": "4952", "SIC_DESC": "Sewerage Systems", "OBJECTID": 729 }, "geometry": { "type": "Point", "coordinates": [ -82.164536571126376, 34.1548120528808 ] } },
{ "type": "Feature", "properties": { "FEATURE": "ENDPIPE", "NPDES": "SC0042706", "PIPE_": "001", "NAME": "NINETY SIX CPW (PIER 96) WWTP", "ACTIVITY": "Active", "FAC_TYPE": "Municipal", "HUC_12": "030501090704", "BASIN": "Saluda", "CNTY_NAME": "Greenwood", "SIC": "6514", "SIC_DESC": "Operators of Dwellings Other Than Apartment Buildings", "OBJECTID": 739 }, "geometry": { "type": "Point", "coordinates": [ -81.916450880385455, 34.168302906674391 ] } },
{ "type": "Feature", "properties": { "FEATURE": "ENDPIPE", "NPDES": "SC0000353", "PIPE_": "001", "NAME": "SAGE AUTO INTERIORS/ABBEVILLE PLANT", "ACTIVITY": "Active", "FAC_TYPE": "Industrial", "HUC_12": "030601030605", "BASIN": "Savannah", "CNTY_NAME": "Abbeville", "SIC": "2262", "SIC_DESC": "Finishers of Broadwoven Fabrics of Manmade Fiber and Silk", "OBJECTID": 747 }, "geometry": { "type": "Point", "coordinates": [ -82.371274920492027, 34.167368542927477 ] } },
{ "type": "Feature", "properties": { "FEATURE": "ENDPIPE", "NPDES": "SC0029408", "PIPE_": "001", "NAME": "MULLINS/WHITE OAK CREEK WWTF", "ACTIVITY": "Active", "FAC_TYPE": "Municipal", "HUC_12": "030402040803", "BASIN": "PeeDee", "CNTY_NAME": "Marion", "SIC": "4952", "SIC_DESC": "Sewerage Systems", "OBJECTID": 754 }, "geometry": { "type": "Point", "coordinates": [ -79.222902465275709, 34.174330931525823 ] } },
{ "type": "Feature", "properties": { "FEATURE": "ENDPIPE", "NPDES": "SC0037575", "PIPE_": "001", "NAME": "COGSDILL TOOL PRODUCTS INC", "ACTIVITY": "Active", "FAC_TYPE": "Industrial", "HUC_12": "030501040304", "BASIN": "Catawba", "CNTY_NAME": "Kershaw", "SIC": "3545", "SIC_DESC": "Cutting Tools, Machine Tool Accessories, and Machinists' Precision Measuring Devices", "OBJECTID": 770 }, "geometry": { "type": "Point", "coordinates": [ -80.673532334336898, 34.197971994812981 ] } },
{ "type": "Feature", "properties": { "FEATURE": "ENDPIPE", "NPDES": "SC0040631", "PIPE_": "001", "NAME": "CHAPIN, TOWN OF", "ACTIVITY": "Active", "FAC_TYPE": "Municipal", "HUC_12": "030501060703", "BASIN": "Broad", "CNTY_NAME": "Richland", "SIC": "4952", "SIC_DESC": "Sewerage Systems", "OBJECTID": 773 }, "geometry": { "type": "Point", "coordinates": [ -81.252301483482242, 34.202290977453927 ] } },
{ "type": "Feature", "properties": { "FEATURE": "ENDPIPE", "NPDES": "SC0003018", "PIPE_": "002", "NAME": "KOPPERS INC", "ACTIVITY": "Active", "FAC_TYPE": "Industrial", "HUC_12": "030402010903", "BASIN": "PeeDee", "CNTY_NAME": "Florence", "SIC": "2491", "SIC_DESC": "Wood Preserving", "OBJECTID": 782 }, "geometry": { "type": "Point", "coordinates": [ -79.727042527815982, 34.20265949734317 ] } },
{ "type": "Feature", "properties": { "FEATURE": "ENDPIPE", "NPDES": "SC0003018", "PIPE_": "001", "NAME": "KOPPERS INC", "ACTIVITY": "Active", "FAC_TYPE": "Industrial", "HUC_12": "030402010902", "BASIN": "PeeDee", "CNTY_NAME": "Florence", "SIC": "2491", "SIC_DESC": "Wood Preserving", "OBJECTID": 784 }, "geometry": { "type": "Point", "coordinates": [ -79.738851771151431, 34.204073289884775 ] } },
{ "type": "Feature", "properties": { "FEATURE": "ENDPIPE", "NPDES": "SC0021709", "PIPE_": "001", "NAME": "GREENWOOD/WILSON CREEK WWTF", "ACTIVITY": "Active", "FAC_TYPE": "Municipal", "HUC_12": "030501090702", "BASIN": "Saluda", "CNTY_NAME": "Greenwood", "SIC": "4952", "SIC_DESC": "Sewerage Systems", "OBJECTID": 786 }, "geometry": { "type": "Point", "coordinates": [ -82.058750876267737, 34.207004123468863 ] } },
{ "type": "Feature", "properties": { "FEATURE": "ENDPIPE", "NPDES": "SC0046230", "PIPE_": "001", "NAME": "MARION/S. MAIN ST. WWTF", "ACTIVITY": "Active", "FAC_TYPE": "Municipal", "HUC_12": "030402011002", "BASIN": "PeeDee", "CNTY_NAME": "Florence", "SIC": "4952", "SIC_DESC": "Sewerage Systems", "OBJECTID": 794 }, "geometry": { "type": "Point", "coordinates": [ -79.546736576278334, 34.209668720321211 ] } },
{ "type": "Feature", "properties": { "FEATURE": "ENDPIPE", "NPDES": "SC0035378", "PIPE_": "001", "NAME": "BISHOPVILLE WWTF", "ACTIVITY": "Active", "FAC_TYPE": "Municipal", "HUC_12": "030402020503", "BASIN": "PeeDee", "CNTY_NAME": "Lee", "SIC": "4952", "SIC_DESC": "Sewerage Systems", "OBJECTID": 798 }, "geometry": { "type": "Point", "coordinates": [ -80.214305751573804, 34.22505337358632 ] } },
{ "type": "Feature", "properties": { "FEATURE": "ENDPIPE", "NPDES": "SC0021032", "PIPE_": "001", "NAME": "CAMDEN WWTF", "ACTIVITY": "Active", "FAC_TYPE": "Municipal", "HUC_12": "030501040304", "BASIN": "Catawba", "CNTY_NAME": "Kershaw", "SIC": "4952", "SIC_DESC": "Sewerage Systems", "OBJECTID": 802 }, "geometry": { "type": "Point", "coordinates": [ -80.629982281408772, 34.235038556131933 ] } },
{ "type": "Feature", "properties": { "FEATURE": "ENDPIPE", "NPDES": "SC0024490", "PIPE_": "001", "NAME": "NEWBERRY/BUSH RIVER WWTF", "ACTIVITY": "Active", "FAC_TYPE": "Municipal", "HUC_12": "030501091206", "BASIN": "Saluda", "CNTY_NAME": "Newberry", "SIC": "4952", "SIC_DESC": "Sewerage Systems", "OBJECTID": 805 }, "geometry": { "type": "Point", "coordinates": [ -81.645250554659597, 34.237788276080394 ] } },
{ "type": "Feature", "properties": { "FEATURE": "ENDPIPE", "NPDES": "SC0002585", "PIPE_": "001", "NAME": "INV CAMDEN PLANT", "ACTIVITY": "Active", "FAC_TYPE": "Industrial", "HUC_12": "030501040304", "BASIN": "Catawba", "CNTY_NAME": "Kershaw", "SIC": "2824", "SIC_DESC": "Manmade Organic Fibers, Except Cellulosic", "OBJECTID": 806 }, "geometry": { "type": "Point", "coordinates": [ -80.646011322535912, 34.239141952165838 ] } },
{ "type": "Feature", "properties": { "FEATURE": "ENDPIPE", "NPDES": "SC0002518", "PIPE_": "001", "NAME": "DEROYAL TEXTILES", "ACTIVITY": "Active", "FAC_TYPE": "Industrial", "HUC_12": "030501040302", "BASIN": "Catawba", "CNTY_NAME": "Kershaw", "SIC": "2211", "SIC_DESC": "Broadwoven Fabric Mills, Cotton", "OBJECTID": 809 }, "geometry": { "type": "Point", "coordinates": [ -80.58626917680705, 34.240598539350472 ] } },
{ "type": "Feature", "properties": { "FEATURE": "ENDPIPE", "NPDES": "SC0039870", "PIPE_": "001", "NAME": "KERSHAW CO/LUGOFF WWTF", "ACTIVITY": "Active", "FAC_TYPE": "Municipal", "HUC_12": "030501040208", "BASIN": "Catawba", "CNTY_NAME": "Kershaw", "SIC": "4952", "SIC_DESC": "Sewerage Systems", "OBJECTID": 812 }, "geometry": { "type": "Point", "coordinates": [ -80.65751756675887, 34.249515818610348 ] } },
{ "type": "Feature", "properties": { "FEATURE": "ENDPIPE", "NPDES": "SC0001864", "PIPE_": "001", "NAME": "SCE&G/PARR HYDRO STATION", "ACTIVITY": "Active", "FAC_TYPE": "Industrial", "HUC_12": "030501060703", "BASIN": "Broad", "CNTY_NAME": "Fairfield", "SIC": "4911", "SIC_DESC": "Electric Services", "OBJECTID": 821 }, "geometry": { "type": "Point", "coordinates": [ -81.330417253136559, 34.261427057674524 ] } },
{ "type": "Feature", "properties": { "FEATURE": "ENDPIPE", "NPDES": "SC0041378", "PIPE_": "003", "NAME": "KENNECOTT/RIDGEWAY GOLD MINE", "ACTIVITY": "Active", "FAC_TYPE": "Industrial", "HUC_12": "030501040206", "BASIN": "Catawba", "CNTY_NAME": "Fairfield", "SIC": "1041", "SIC_DESC": "Gold Ores", "OBJECTID": 822 }, "geometry": { "type": "Point", "coordinates": [ -80.89278380159304, 34.261827761386385 ] } },
{ "type": "Feature", "properties": { "FEATURE": "ENDPIPE", "NPDES": "SC0041378", "PIPE_": "03A", "NAME": "KENNECOTT/RIDGEWAY GOLD MINE", "ACTIVITY": "Active", "FAC_TYPE": "Industrial", "HUC_12": "030501040206", "BASIN": "Catawba", "CNTY_NAME": "Fairfield", "SIC": "1041", "SIC_DESC": "Gold Ores", "OBJECTID": 823 }, "geometry": { "type": "Point", "coordinates": [ -80.894744293428275, 34.264640987031733 ] } },
{ "type": "Feature", "properties": { "FEATURE": "ENDPIPE", "NPDES": "SC0041378", "PIPE_": "03B", "NAME": "KENNECOTT/RIDGEWAY GOLD MINE", "ACTIVITY": "Active", "FAC_TYPE": "Industrial", "HUC_12": "030501040206", "BASIN": "Catawba", "CNTY_NAME": "Fairfield", "SIC": "1041", "SIC_DESC": "Gold Ores", "OBJECTID": 825 }, "geometry": { "type": "Point", "coordinates": [ -80.893257727135477, 34.264998187924448 ] } },
{ "type": "Feature", "properties": { "FEATURE": "ENDPIPE", "NPDES": "SC0038407", "PIPE_": "001", "NAME": "SCE&G/VCSUMMER NND & CONSTRUCTION CITY STP #48", "ACTIVITY": "Active", "FAC_TYPE": "Industrial", "HUC_12": "030501060703", "BASIN": "Broad", "CNTY_NAME": "Fairfield", "SIC": "4911", "SIC_DESC": "Electric Services", "OBJECTID": 827 }, "geometry": { "type": "Point", "coordinates": [ -81.320552552794794, 34.265360509700216 ] } },
{ "type": "Feature", "properties": { "FEATURE": "ENDPIPE", "NPDES": "SC0048313", "PIPE_": "001", "NAME": "NCW&SA/CANNONS CREEK WWTP", "ACTIVITY": "Active", "FAC_TYPE": "Municipal", "HUC_12": "030501060405", "BASIN": "Broad", "CNTY_NAME": "Newberry", "SIC": "4952", "SIC_DESC": "Sewerage Systems", "OBJECTID": 830 }, "geometry": { "type": "Point", "coordinates": [ -81.463610031124432, 34.275405431195573 ] } },
{ "type": "Feature", "properties": { "FEATURE": "ENDPIPE", "NPDES": "SC0004162", "PIPE_": "001", "NAME": "WELLMAN INC/PALMETTO PLANT", "ACTIVITY": "Active", "FAC_TYPE": "Industrial", "HUC_12": "030402010709", "BASIN": "PeeDee", "CNTY_NAME": "Darlington", "SIC": "2824", "SIC_DESC": "Manmade Organic Fibers, Except Cellulosic", "OBJECTID": 832 }, "geometry": { "type": "Point", "coordinates": [ -79.804556838442934, 34.27382374569909 ] } },
{ "type": "Feature", "properties": { "FEATURE": "ENDPIPE", "NPDES": "SC0030856", "PIPE_": "001", "NAME": "SCE&G/V C SUMMER NUCLEAR STAT", "ACTIVITY": "Active", "FAC_TYPE": "Industrial", "HUC_12": "030501060403", "BASIN": "Broad", "CNTY_NAME": "Fairfield", "SIC": "4911", "SIC_DESC": "Electric Services", "OBJECTID": 839 }, "geometry": { "type": "Point", "coordinates": [ -81.308430619625398, 34.295632767890659 ] } },
{ "type": "Feature", "properties": { "FEATURE": "ENDPIPE", "NPDES": "SC0030856", "PIPE_": "014", "NAME": "SCE&G/V C SUMMER NUCLEAR STAT", "ACTIVITY": "Active", "FAC_TYPE": "Industrial", "HUC_12": "030501060403", "BASIN": "Broad", "CNTY_NAME": "Fairfield", "SIC": "4911", "SIC_DESC": "Electric Services", "OBJECTID": 840 }, "geometry": { "type": "Point", "coordinates": [ -81.308430619625398, 34.295632767890659 ] } },
{ "type": "Feature", "properties": { "FEATURE": "ENDPIPE", "NPDES": "SC0022900", "PIPE_": "001", "NAME": "RIDGEWAY, TOWN OF", "ACTIVITY": "Active", "FAC_TYPE": "Municipal", "HUC_12": "030501060601", "BASIN": "Broad", "CNTY_NAME": "Fairfield", "SIC": "4952", "SIC_DESC": "Sewerage Systems", "OBJECTID": 842 }, "geometry": { "type": "Point", "coordinates": [ -80.970867465860493, 34.299155960086878 ] } },
{ "type": "Feature", "properties": { "FEATURE": "ENDPIPE", "NPDES": "SC0035904", "PIPE_": "003", "NAME": "SCE&G/FAIRFIELD PUMPED STORAGE", "ACTIVITY": "Active", "FAC_TYPE": "Industrial", "HUC_12": "030501060403", "BASIN": "Broad", "CNTY_NAME": "Fairfield", "SIC": "4911", "SIC_DESC": "Electric Services", "OBJECTID": 843 }, "geometry": { "type": "Point", "coordinates": [ -81.331500360793086, 34.306352454824406 ] } },
{ "type": "Feature", "properties": { "FEATURE": "ENDPIPE", "NPDES": "SC0035904", "PIPE_": "002", "NAME": "SCE&G/FAIRFIELD PUMPED STORAGE", "ACTIVITY": "Active", "FAC_TYPE": "Industrial", "HUC_12": "030501060403", "BASIN": "Broad", "CNTY_NAME": "Fairfield", "SIC": "4911", "SIC_DESC": "Electric Services", "OBJECTID": 844 }, "geometry": { "type": "Point", "coordinates": [ -81.331313189727283, 34.306460518419726 ] } },
{ "type": "Feature", "properties": { "FEATURE": "ENDPIPE", "NPDES": "SC0035904", "PIPE_": "001", "NAME": "SCE&G/FAIRFIELD PUMPED STORAGE", "ACTIVITY": "Active", "FAC_TYPE": "Industrial", "HUC_12": "030501060403", "BASIN": "Broad", "CNTY_NAME": "Fairfield", "SIC": "4911", "SIC_DESC": "Electric Services", "OBJECTID": 845 }, "geometry": { "type": "Point", "coordinates": [ -81.331313189727283, 34.306460518419726 ] } },
{ "type": "Feature", "properties": { "FEATURE": "ENDPIPE", "NPDES": "SC0030856", "PIPE_": "003", "NAME": "SCE&G/V C SUMMER NUCLEAR STAT", "ACTIVITY": "Active", "FAC_TYPE": "Industrial", "HUC_12": "030501060403", "BASIN": "Broad", "CNTY_NAME": "Fairfield", "SIC": "4911", "SIC_DESC": "Electric Services", "OBJECTID": 846 }, "geometry": { "type": "Point", "coordinates": [ -81.331470922324172, 34.306475264301284 ] } },
{ "type": "Feature", "properties": { "FEATURE": "ENDPIPE", "NPDES": "SC0022403", "PIPE_": "001", "NAME": "DUE WEST WWTF", "ACTIVITY": "Active", "FAC_TYPE": "Municipal", "HUC_12": "030601030505", "BASIN": "Savannah", "CNTY_NAME": "Abbeville", "SIC": "4952", "SIC_DESC": "Sewerage Systems", "OBJECTID": 855 }, "geometry": { "type": "Point", "coordinates": [ -82.390218072329958, 34.316267925742679 ] } },
{ "type": "Feature", "properties": { "FEATURE": "ENDPIPE", "NPDES": "SC0039624", "PIPE_": "001", "NAME": "DARLINGTON/BLACK CREEK WWTF", "ACTIVITY": "Active", "FAC_TYPE": "Municipal", "HUC_12": "030402010709", "BASIN": "PeeDee", "CNTY_NAME": "Darlington", "SIC": "4952", "SIC_DESC": "Sewerage Systems", "OBJECTID": 856 }, "geometry": { "type": "Point", "coordinates": [ -79.856228947867947, 34.324025424274382 ] } },
{ "type": "Feature", "properties": { "FEATURE": "ENDPIPE", "NPDES": "SC0047384", "PIPE_": "001", "NAME": "NEW SOUTH LUMBER CO/CAMDEN PLANT", "ACTIVITY": "Active", "FAC_TYPE": "Industrial", "HUC_12": "030501040204", "BASIN": "Catawba", "CNTY_NAME": "Kershaw", "SIC": "2421", "SIC_DESC": "Sawmills and Planing Mills, General", "OBJECTID": 857 }, "geometry": { "type": "Point", "coordinates": [ -80.541459302407077, 34.327880126191992 ] } },
{ "type": "Feature", "properties": { "FEATURE": "ENDPIPE", "NPDES": "SC0048135", "PIPE_": "001", "NAME": "SCPSA/JOHN RAINEY GEN STATION", "ACTIVITY": "Active", "FAC_TYPE": "Industrial", "HUC_12": "030601030405", "BASIN": "Savannah", "CNTY_NAME": "Anderson", "SIC": "4911", "SIC_DESC": "Electric Services", "OBJECTID": 859 }, "geometry": { "type": "Point", "coordinates": [ -82.791163264694632, 34.324402459834616 ] } },
{ "type": "Feature", "properties": { "FEATURE": "ENDPIPE", "NPDES": "SC0025402", "PIPE_": "001", "NAME": "LATTA, TOWN OF", "ACTIVITY": "Active", "FAC_TYPE": "Municipal", "HUC_12": "030402040403", "BASIN": "PeeDee", "CNTY_NAME": "Dillon", "SIC": "4952", "SIC_DESC": "Sewerage Systems", "OBJECTID": 868 }, "geometry": { "type": "Point", "coordinates": [ -79.412228432147188, 34.339957086840073 ] } },
{ "type": "Feature", "properties": { "FEATURE": "ENDPIPE", "NPDES": "SC0022284", "PIPE_": "001", "NAME": "LAKE VIEW WWTF", "ACTIVITY": "Active", "FAC_TYPE": "Municipal", "HUC_12": "030402031302", "BASIN": "PeeDee", "CNTY_NAME": "Dillon", "SIC": "4952", "SIC_DESC": "Sewerage Systems", "OBJECTID": 869 }, "geometry": { "type": "Point", "coordinates": [ -79.157319464886726, 34.346143695183194 ] } },
{ "type": "Feature", "properties": { "FEATURE": "ENDPIPE", "NPDES": "SC0020125", "PIPE_": "001", "NAME": "WINNSBORO/JACKSON CREEK PLANT", "ACTIVITY": "Active", "FAC_TYPE": "Municipal", "HUC_12": "030501060504", "BASIN": "Broad", "CNTY_NAME": "Fairfield", "SIC": "4952", "SIC_DESC": "Sewerage Systems", "OBJECTID": 874 }, "geometry": { "type": "Point", "coordinates": [ -81.105558405314582, 34.382015731016729 ] } },
{ "type": "Feature", "properties": { "FEATURE": "ENDPIPE", "NPDES": "SC0003042", "PIPE_": "005", "NAME": "SONOCO PRODUCTS/HARTSVILLE", "ACTIVITY": "Active", "FAC_TYPE": "Industrial", "HUC_12": "030402010704", "BASIN": "PeeDee", "CNTY_NAME": "Darlington", "SIC": "2631", "SIC_DESC": "Paperboard Mills", "OBJECTID": 876 }, "geometry": { "type": "Point", "coordinates": [ -80.067715207259965, 34.385891248738176 ] } },
{ "type": "Feature", "properties": { "FEATURE": "ENDPIPE", "NPDES": "SC0003042", "PIPE_": "004", "NAME": "SONOCO PRODUCTS/HARTSVILLE", "ACTIVITY": "Active", "FAC_TYPE": "Industrial", "HUC_12": "030402010704", "BASIN": "PeeDee", "CNTY_NAME": "Darlington", "SIC": "2631", "SIC_DESC": "Paperboard Mills", "OBJECTID": 877 }, "geometry": { "type": "Point", "coordinates": [ -80.06593215604579, 34.386425488810445 ] } },
{ "type": "Feature", "properties": { "FEATURE": "ENDPIPE", "NPDES": "SC0003042", "PIPE_": "003", "NAME": "SONOCO PRODUCTS/HARTSVILLE", "ACTIVITY": "Active", "FAC_TYPE": "Industrial", "HUC_12": "030402010704", "BASIN": "PeeDee", "CNTY_NAME": "Darlington", "SIC": "2631", "SIC_DESC": "Paperboard Mills", "OBJECTID": 878 }, "geometry": { "type": "Point", "coordinates": [ -80.065509078009072, 34.386505674109983 ] } },
{ "type": "Feature", "properties": { "FEATURE": "ENDPIPE", "NPDES": "SC0003042", "PIPE_": "006", "NAME": "SONOCO PRODUCTS/HARTSVILLE", "ACTIVITY": "Active", "FAC_TYPE": "Industrial", "HUC_12": "030402010704", "BASIN": "PeeDee", "CNTY_NAME": "Darlington", "SIC": "2631", "SIC_DESC": "Paperboard Mills", "OBJECTID": 880 }, "geometry": { "type": "Point", "coordinates": [ -80.061398817218972, 34.388809852594306 ] } },
{ "type": "Feature", "properties": { "FEATURE": "ENDPIPE", "NPDES": "SC0037974", "PIPE_": "001", "NAME": "LAURENS CO W&S/CLINTON-JOANNA", "ACTIVITY": "Active", "FAC_TYPE": "Municipal", "HUC_12": "030501091204", "BASIN": "Saluda", "CNTY_NAME": "Laurens", "SIC": "4952", "SIC_DESC": "Sewerage Systems", "OBJECTID": 881 }, "geometry": { "type": "Point", "coordinates": [ -81.813089688184078, 34.391227803662844 ] } },
{ "type": "Feature", "properties": { "FEATURE": "ENDPIPE", "NPDES": "SC0003042", "PIPE_": "001", "NAME": "SONOCO PRODUCTS/HARTSVILLE", "ACTIVITY": "Active", "FAC_TYPE": "Industrial", "HUC_12": "030402010704", "BASIN": "PeeDee", "CNTY_NAME": "Darlington", "SIC": "2631", "SIC_DESC": "Paperboard Mills", "OBJECTID": 883 }, "geometry": { "type": "Point", "coordinates": [ -80.047313618050552, 34.393581926737554 ] } },
{ "type": "Feature", "properties": { "FEATURE": "ENDPIPE", "NPDES": "SC0003042", "PIPE_": "002", "NAME": "SONOCO PRODUCTS/HARTSVILLE", "ACTIVITY": "Active", "FAC_TYPE": "Industrial", "HUC_12": "030402010704", "BASIN": "PeeDee", "CNTY_NAME": "Darlington", "SIC": "2631", "SIC_DESC": "Paperboard Mills", "OBJECTID": 884 }, "geometry": { "type": "Point", "coordinates": [ -80.045242083261428, 34.396622841284341 ] } },
{ "type": "Feature", "properties": { "FEATURE": "ENDPIPE", "NPDES": "SC0020214", "PIPE_": "001", "NAME": "WARE SHOALS/DAIRY STREET", "ACTIVITY": "Active", "FAC_TYPE": "Municipal", "HUC_12": "030501090805", "BASIN": "Saluda", "CNTY_NAME": "Greenwood", "SIC": "4952", "SIC_DESC": "Sewerage Systems", "OBJECTID": 888 }, "geometry": { "type": "Point", "coordinates": [ -82.230424845228484, 34.397364410338156 ] } },
{ "type": "Feature", "properties": { "FEATURE": "ENDPIPE", "NPDES": "SC0021580", "PIPE_": "001", "NAME": "HARTSVILLE WWTF", "ACTIVITY": "Active", "FAC_TYPE": "Municipal", "HUC_12": "030402010704", "BASIN": "PeeDee", "CNTY_NAME": "Darlington", "SIC": "4952", "SIC_DESC": "Sewerage Systems", "OBJECTID": 890 }, "geometry": { "type": "Point", "coordinates": [ -80.007757091679963, 34.402594220120363 ] } },
{ "type": "Feature", "properties": { "FEATURE": "ENDPIPE", "NPDES": "SC0021776", "PIPE_": "002", "NAME": "DILLON/LITTLE PEE DEE", "ACTIVITY": "Active", "FAC_TYPE": "Municipal", "HUC_12": "030402040506", "BASIN": "PeeDee", "CNTY_NAME": "Dillon", "SIC": "4952", "SIC_DESC": "Sewerage Systems", "OBJECTID": 893 }, "geometry": { "type": "Point", "coordinates": [ -79.290520853739366, 34.33954854981949 ] } },
{ "type": "Feature", "properties": { "FEATURE": "ENDPIPE", "NPDES": "SC0021776", "PIPE_": "003", "NAME": "DILLON/LITTLE PEE DEE", "ACTIVITY": "Active", "FAC_TYPE": "Municipal", "HUC_12": "030402040506", "BASIN": "PeeDee", "CNTY_NAME": "Dillon", "SIC": "4952", "SIC_DESC": "Sewerage Systems", "OBJECTID": 894 }, "geometry": { "type": "Point", "coordinates": [ -79.290520853739366, 34.33954854981949 ] } },
{ "type": "Feature", "properties": { "FEATURE": "ENDPIPE", "NPDES": "SC0021776", "PIPE_": "004", "NAME": "DILLON/LITTLE PEE DEE", "ACTIVITY": "Active", "FAC_TYPE": "Municipal", "HUC_12": "030402040506", "BASIN": "PeeDee", "CNTY_NAME": "Dillon", "SIC": "4952", "SIC_DESC": "Sewerage Systems", "OBJECTID": 895 }, "geometry": { "type": "Point", "coordinates": [ -79.294301765025267, 34.334818825846853 ] } },
{ "type": "Feature", "properties": { "FEATURE": "ENDPIPE", "NPDES": "SC0021776", "PIPE_": "001", "NAME": "DILLON/LITTLE PEE DEE", "ACTIVITY": "Active", "FAC_TYPE": "Municipal", "HUC_12": "030402040506", "BASIN": "PeeDee", "CNTY_NAME": "Dillon", "SIC": "4952", "SIC_DESC": "Sewerage Systems", "OBJECTID": 896 }, "geometry": { "type": "Point", "coordinates": [ -79.348942635778727, 34.403553163874307 ] } },
{ "type": "Feature", "properties": { "FEATURE": "ENDPIPE", "NPDES": "SC0033651", "PIPE_": "001", "NAME": "NOSOCA PINES RANCH", "ACTIVITY": "Active", "FAC_TYPE": "Domestic", "HUC_12": "030501040111", "BASIN": "Catawba", "CNTY_NAME": "Kershaw", "SIC": "7032", "SIC_DESC": "Sporting and Recreational Camps", "OBJECTID": 899 }, "geometry": { "type": "Point", "coordinates": [ -80.801479871004034, 34.42226168826916 ] } },
{ "type": "Feature", "properties": { "FEATURE": "ENDPIPE", "NPDES": "SC0001341", "PIPE_": "001", "NAME": "AHLSTROM NONWOVENS LLC/BETHUNE", "ACTIVITY": "Active", "FAC_TYPE": "Industrial", "HUC_12": "030402020307", "BASIN": "PeeDee", "CNTY_NAME": "Kershaw", "SIC": "2297", "SIC_DESC": "Nonwoven Fabrics", "OBJECTID": 900 }, "geometry": { "type": "Point", "coordinates": [ -80.333728843949274, 34.423101578521035 ] } },
{ "type": "Feature", "properties": { "FEATURE": "ENDPIPE", "NPDES": "SC0000400", "PIPE_": "001", "NAME": "OWENS CORNING COMPOSITE MATERIALS/ANDERSON", "ACTIVITY": "Active", "FAC_TYPE": "Industrial", "HUC_12": "030601030203", "BASIN": "Savannah", "CNTY_NAME": "Anderson", "SIC": "3229", "SIC_DESC": "Pressed and Blown Glass and Glassware, NEC", "OBJECTID": 907 }, "geometry": { "type": "Point", "coordinates": [ -82.657001776970432, 34.438199197038564 ] } },
{ "type": "Feature", "properties": { "FEATURE": "ENDPIPE", "NPDES": "SC0024716", "PIPE_": "002", "NAME": "UNITED UTIL/CHAMBERT FOREST SD", "ACTIVITY": "Active", "FAC_TYPE": "Domestic", "HUC_12": "030601030401", "BASIN": "Savannah", "CNTY_NAME": "Anderson", "SIC": "6514", "SIC_DESC": "Operators of Dwellings Other Than Apartment Buildings", "OBJECTID": 909 }, "geometry": { "type": "Point", "coordinates": [ -82.717669732814613, 34.440159304639593 ] } },
{ "type": "Feature", "properties": { "FEATURE": "ENDPIPE", "NPDES": "SC0024716", "PIPE_": "001", "NAME": "UNITED UTIL/CHAMBERT FOREST SD", "ACTIVITY": "Active", "FAC_TYPE": "Domestic", "HUC_12": "030601030401", "BASIN": "Savannah", "CNTY_NAME": "Anderson", "SIC": "6514", "SIC_DESC": "Operators of Dwellings Other Than Apartment Buildings", "OBJECTID": 911 }, "geometry": { "type": "Point", "coordinates": [ -82.716614793251324, 34.441858010885497 ] } },
{ "type": "Feature", "properties": { "FEATURE": "ENDPIPE", "NPDES": "SC0047210", "PIPE_": "001", "NAME": "FMR ELISKIM INC/C/O SCDHEC", "ACTIVITY": "Active", "FAC_TYPE": "Industrial", "HUC_12": "030601030203", "BASIN": "Savannah", "CNTY_NAME": "Anderson", "SIC": "9999", "SIC_DESC": "Nonclassifiable Establishments", "OBJECTID": 914 }, "geometry": { "type": "Point", "coordinates": [ -82.653884609658562, 34.450251923016516 ] } },
{ "type": "Feature", "properties": { "FEATURE": "ENDPIPE", "NPDES": "SC0023744", "PIPE_": "001", "NAME": "ANDERSON/ROCKY RIVER", "ACTIVITY": "Active", "FAC_TYPE": "Municipal", "HUC_12": "030601030203", "BASIN": "Savannah", "CNTY_NAME": "Anderson", "SIC": "4952", "SIC_DESC": "Sewerage Systems", "OBJECTID": 923 }, "geometry": { "type": "Point", "coordinates": [ -82.614877796271116, 34.464447691642768 ] } },
{ "type": "Feature", "properties": { "FEATURE": "ENDPIPE", "NPDES": "SC0023752", "PIPE_": "001", "NAME": "ANDERSON/GENEROSTEE CREEK", "ACTIVITY": "Active", "FAC_TYPE": "Municipal", "HUC_12": "030601030401", "BASIN": "Savannah", "CNTY_NAME": "Anderson", "SIC": "4952", "SIC_DESC": "Sewerage Systems", "OBJECTID": 926 }, "geometry": { "type": "Point", "coordinates": [ -82.723406978670553, 34.472372118751757 ] } },
{ "type": "Feature", "properties": { "FEATURE": "ENDPIPE", "NPDES": "SC0020702", "PIPE_": "001", "NAME": "LAURENS COMM OF PW/LAURENS", "ACTIVITY": "Active", "FAC_TYPE": "Municipal", "HUC_12": "030501090901", "BASIN": "Saluda", "CNTY_NAME": "Laurens", "SIC": "4952", "SIC_DESC": "Sewerage Systems", "OBJECTID": 933 }, "geometry": { "type": "Point", "coordinates": [ -81.997724454724832, 34.484665450757994 ] } },
{ "type": "Feature", "properties": { "FEATURE": "ENDPIPE", "NPDES": "SC0048534", "PIPE_": "001", "NAME": "INGERSOLL RAND/G.W. RECOVERY SYS", "ACTIVITY": "Active", "FAC_TYPE": "Industrial", "HUC_12": "030501090902", "BASIN": "Saluda", "CNTY_NAME": "Laurens", "SIC": "9999", "SIC_DESC": "Nonclassifiable Establishments", "OBJECTID": 935 }, "geometry": { "type": "Point", "coordinates": [ -81.932516553303458, 34.486360351215602 ] } },
{ "type": "Feature", "properties": { "FEATURE": "ENDPIPE", "NPDES": "SC0000698", "PIPE_": "002", "NAME": "BELTON INDUSTRIES INC", "ACTIVITY": "Active", "FAC_TYPE": "Industrial", "HUC_12": "030501090802", "BASIN": "Saluda", "CNTY_NAME": "Anderson", "SIC": "2221", "SIC_DESC": "Broadwoven Fabric Mills, Manmade Fiber and Silk", "OBJECTID": 936 }, "geometry": { "type": "Point", "coordinates": [ -82.437363487669487, 34.4820499959187 ] } },
{ "type": "Feature", "properties": { "FEATURE": "ENDPIPE", "NPDES": "SC0000698", "PIPE_": "001", "NAME": "BELTON INDUSTRIES INC", "ACTIVITY": "Active", "FAC_TYPE": "Industrial", "HUC_12": "030501090802", "BASIN": "Saluda", "CNTY_NAME": "Anderson", "SIC": "2221", "SIC_DESC": "Broadwoven Fabric Mills, Manmade Fiber and Silk", "OBJECTID": 937 }, "geometry": { "type": "Point", "coordinates": [ -82.43743089745422, 34.482071745885122 ] } },
{ "type": "Feature", "properties": { "FEATURE": "ENDPIPE", "NPDES": "SC0047520", "PIPE_": "001", "NAME": "INGERSOLL-RAND COMPANY", "ACTIVITY": "Active", "FAC_TYPE": "Industrial", "HUC_12": "030501090802", "BASIN": "Saluda", "CNTY_NAME": "Anderson", "SIC": "3714", "SIC_DESC": "Motor Vehicle Parts and Accessories", "OBJECTID": 938 }, "geometry": { "type": "Point", "coordinates": [ -82.417010943390977, 34.483453192981912 ] } },
{ "type": "Feature", "properties": { "FEATURE": "ENDPIPE", "NPDES": "SC0022390", "PIPE_": "001", "NAME": "WHITMIRE, TOWN OF", "ACTIVITY": "Active", "FAC_TYPE": "Municipal", "HUC_12": "030501080303", "BASIN": "Broad", "CNTY_NAME": "Newberry", "SIC": "4952", "SIC_DESC": "Sewerage Systems", "OBJECTID": 939 }, "geometry": { "type": "Point", "coordinates": [ -81.609330835203892, 34.491054269376669 ] } },
{ "type": "Feature", "properties": { "FEATURE": "ENDPIPE", "NPDES": "SC0035980", "PIPE_": "001", "NAME": "WHITE OAK CONFERENCE CENTER", "ACTIVITY": "Active", "FAC_TYPE": "Domestic", "HUC_12": "030501040104", "BASIN": "Catawba", "CNTY_NAME": "Fairfield", "SIC": "8641", "SIC_DESC": "Civic, Social, and Fraternal Associations", "OBJECTID": 940 }, "geometry": { "type": "Point", "coordinates": [ -81.088846333035121, 34.493610742748068 ] } },
{ "type": "Feature", "properties": { "FEATURE": "ENDPIPE", "NPDES": "SC0001996", "PIPE_": "001", "NAME": "MOHAWK IND/OAK RIVER PLANT", "ACTIVITY": "Active", "FAC_TYPE": "Industrial", "HUC_12": "030402010806", "BASIN": "PeeDee", "CNTY_NAME": "Marlboro", "SIC": "2281", "SIC_DESC": "Yarn Spinning Mills", "OBJECTID": 943 }, "geometry": { "type": "Point", "coordinates": [ -79.723637818188237, 34.493723188183559 ] } },
{ "type": "Feature", "properties": { "FEATURE": "ENDPIPE", "NPDES": "SC0001996", "PIPE_": "003", "NAME": "MOHAWK IND/OAK RIVER PLANT", "ACTIVITY": "Active", "FAC_TYPE": "Industrial", "HUC_12": "030402010806", "BASIN": "PeeDee", "CNTY_NAME": "Marlboro", "SIC": "2281", "SIC_DESC": "Yarn Spinning Mills", "OBJECTID": 944 }, "geometry": { "type": "Point", "coordinates": [ -79.719826789778935, 34.494603087646809 ] } },
{ "type": "Feature", "properties": { "FEATURE": "ENDPIPE", "NPDES": "SC0001996", "PIPE_": "002", "NAME": "MOHAWK IND/OAK RIVER PLANT", "ACTIVITY": "Active", "FAC_TYPE": "Industrial", "HUC_12": "030402010806", "BASIN": "PeeDee", "CNTY_NAME": "Marlboro", "SIC": "2281", "SIC_DESC": "Yarn Spinning Mills", "OBJECTID": 946 }, "geometry": { "type": "Point", "coordinates": [ -79.721113190505406, 34.499023803742332 ] } },
{ "type": "Feature", "properties": { "FEATURE": "ENDPIPE", "NPDES": "SC0031801", "PIPE_": "001", "NAME": "SOUTH OF THE BORDER MOTEL", "ACTIVITY": "Active", "FAC_TYPE": "Domestic", "HUC_12": "030402040503", "BASIN": "PeeDee", "CNTY_NAME": "Dillon", "SIC": "7011", "SIC_DESC": "Hotels and Motels", "OBJECTID": 949 }, "geometry": { "type": "Point", "coordinates": [ -79.305733934778331, 34.496813908235907 ] } },
{ "type": "Feature", "properties": { "FEATURE": "ENDPIPE", "NPDES": "SC0025798", "PIPE_": "001", "NAME": "KERSHAW/HANGING ROCK CREEK", "ACTIVITY": "Active", "FAC_TYPE": "Municipal", "HUC_12": "030402020202", "BASIN": "PeeDee", "CNTY_NAME": "Lancaster", "SIC": "4952", "SIC_DESC": "Sewerage Systems", "OBJECTID": 964 }, "geometry": { "type": "Point", "coordinates": [ -80.597159242246065, 34.53633256192628 ] } },
{ "type": "Feature", "properties": { "FEATURE": "ENDPIPE", "NPDES": "SC0021849", "PIPE_": "001", "NAME": "HARBOR GATE CONDOMINIUMS", "ACTIVITY": "Active", "FAC_TYPE": "Domestic", "HUC_12": "030601010704", "BASIN": "Savannah", "CNTY_NAME": "Anderson", "SIC": "6513", "SIC_DESC": "Operators of Apartment Buildings", "OBJECTID": 965 }, "geometry": { "type": "Point", "coordinates": [ -82.77855178618492, 34.524872374852578 ] } },
{ "type": "Feature", "properties": { "FEATURE": "ENDPIPE", "NPDES": "SC0045896", "PIPE_": "002", "NAME": "BELTON/DUCWORTH (SALUDA)", "ACTIVITY": "Active", "FAC_TYPE": "Municipal", "HUC_12": "030501090802", "BASIN": "Saluda", "CNTY_NAME": "Anderson", "SIC": "4952", "SIC_DESC": "Sewerage Systems", "OBJECTID": 971 }, "geometry": { "type": "Point", "coordinates": [ -82.453844476725948, 34.532833332416523 ] } },
{ "type": "Feature", "properties": { "FEATURE": "ENDPIPE", "NPDES": "SC0045896", "PIPE_": "003", "NAME": "BELTON/DUCWORTH (SALUDA)", "ACTIVITY": "Active", "FAC_TYPE": "Municipal", "HUC_12": "030501090802", "BASIN": "Saluda", "CNTY_NAME": "Anderson", "SIC": "4952", "SIC_DESC": "Sewerage Systems", "OBJECTID": 972 }, "geometry": { "type": "Point", "coordinates": [ -82.453844476725948, 34.532833332416523 ] } },
{ "type": "Feature", "properties": { "FEATURE": "ENDPIPE", "NPDES": "SC0040606", "PIPE_": "01A", "NAME": "CLIO WWTF", "ACTIVITY": "Active", "FAC_TYPE": "Municipal", "HUC_12": "030402010804", "BASIN": "PeeDee", "CNTY_NAME": "Marlboro", "SIC": "4952", "SIC_DESC": "Sewerage Systems", "OBJECTID": 975 }, "geometry": { "type": "Point", "coordinates": [ -79.602244170172469, 34.544558000274961 ] } },
{ "type": "Feature", "properties": { "FEATURE": "ENDPIPE", "NPDES": "SC0023311", "PIPE_": "001", "NAME": "ANITA INC", "ACTIVITY": "Active", "FAC_TYPE": "Domestic", "HUC_12": "030601010804", "BASIN": "Savannah", "CNTY_NAME": "Anderson", "SIC": "7011", "SIC_DESC": "Hotels and Motels", "OBJECTID": 983 },